[
  {
    "street": "Via Brentano",
    "number": "10",
    "city": {
      "name": "Griante",
      "istat": "013113"
    },
    "latitude": 45.9946659,
    "longitude": 9.2345785
  },
  {
    "street": "Roma",
    "number": "2",
    "city": {
      "name": "Griante",
      "istat": "013113"
    },
    "latitude": 45.992563,
    "longitude": 9.238022
  },
  {
    "street": "Via Statale Regina",
    "number": "43",
    "city": {
      "name": "Griante",
      "istat": "013113"
    },
    "latitude": 45.9925608,
    "longitude": 9.2382205
  },
  {
    "street": "Via Provinciale Regina",
    "number": "41",
    "city": {
      "name": "Griante",
      "istat": "013113"
    },
    "latitude": 45.9923383,
    "longitude": 9.2378449
  },
  {
    "street": "Via Brentano",
    "number": "12-F",
    "city": {
      "name": "Griante",
      "istat": "013113"
    },
    "latitude": 45.995668,
    "longitude": 9.2337373
  },
  {
    "street": "Via Roma",
    "number": "6",
    "city": {
      "name": "Griante",
      "istat": "013113"
    },
    "latitude": 45.992647,
    "longitude": 9.2377755
  },
  {
    "street": "Via Roma",
    "number": "8",
    "city": {
      "name": "Griante",
      "istat": "013113"
    },
    "latitude": 45.9931134,
    "longitude": 9.2384467
  },
  {
    "street": "Via Regina",
    "number": "3",
    "city": {
      "name": "Griante",
      "istat": "013113"
    },
    "latitude": 45.9881042,
    "longitude": 9.2350582
  },
  {
    "street": "Via Castello",
    "number": "1",
    "city": {
      "name": "Griante",
      "istat": "013113"
    },
    "latitude": 45.9920171,
    "longitude": 9.2353754
  },
  {
    "street": "Via Roma",
    "number": "11",
    "city": {
      "name": "Griante",
      "istat": "013113"
    },
    "latitude": 45.991275,
    "longitude": 9.2351695
  }
]