[
  {
    "street": "Via Luigi Cadorna",
    "number": "10",
    "city": {
      "name": "Angera",
      "istat": "012003"
    },
    "latitude": 45.7742836,
    "longitude": 8.5793377
  },
  {
    "street": "Viale della LibertÃ ",
    "number": "11",
    "city": {
      "name": "Angera",
      "istat": "012003"
    },
    "latitude": 45.7777804,
    "longitude": 8.5648041
  },
  {
    "street": "Piazza della Vittoria",
    "number": "2",
    "city": {
      "name": "Angera",
      "istat": "012003"
    },
    "latitude": 45.7705733,
    "longitude": 8.5685884
  },
  {
    "street": "Piazza Parrocchiale",
    "number": "24",
    "city": {
      "name": "Angera",
      "istat": "012003"
    },
    "latitude": 45.7735094,
    "longitude": 8.5776686
  },
  {
    "street": "Via Armando Diaz",
    "number": "1",
    "city": {
      "name": "Angera",
      "istat": "012003"
    },
    "latitude": 45.7736308,
    "longitude": 8.5778631
  },
  {
    "street": "Via Giacomo Matteotti",
    "number": "65",
    "city": {
      "name": "Angera",
      "istat": "012003"
    },
    "latitude": 45.7745257,
    "longitude": 8.5845684
  },
  {
    "street": "Via Giuseppe Mazzini",
    "number": "71",
    "city": {
      "name": "Angera",
      "istat": "012003"
    },
    "latitude": 45.7736629,
    "longitude": 8.5797849
  },
  {
    "street": "Via Mario Greppi",
    "number": "41",
    "city": {
      "name": "Angera",
      "istat": "012003"
    },
    "latitude": 45.7731395,
    "longitude": 8.5757059
  },
  {
    "street": "Viale Pietro Martire",
    "number": "34",
    "city": {
      "name": "Angera",
      "istat": "012003"
    },
    "latitude": 45.773727,
    "longitude": 8.5680699
  },
  {
    "street": "Via Mario Greppi",
    "number": "6",
    "city": {
      "name": "Angera",
      "istat": "012003"
    },
    "latitude": 45.7735324,
    "longitude": 8.576889
  },
  {
    "street": "Via San Martino",
    "number": "56",
    "city": {
      "name": "Angera",
      "istat": "012003"
    },
    "latitude": 45.7758587,
    "longitude": 8.5831853
  },
  {
    "street": "Viale Repubblica",
    "number": "14",
    "city": {
      "name": "Angera",
      "istat": "012003"
    },
    "latitude": 45.7708269,
    "longitude": 8.5708413
  },
  {
    "street": "Viale Repubblica",
    "number": "10",
    "city": {
      "name": "Angera",
      "istat": "012003"
    },
    "latitude": 45.770906,
    "longitude": 8.5715133
  },
  {
    "street": "Via Borromeo",
    "number": "14",
    "city": {
      "name": "Angera",
      "istat": "012003"
    },
    "latitude": 45.7723128,
    "longitude": 8.5745138
  },
  {
    "street": "Via Paletta",
    "number": "20",
    "city": {
      "name": "Angera",
      "istat": "012003"
    },
    "latitude": 45.7719281,
    "longitude": 8.5736262
  },
  {
    "street": "Piazza Giuseppe Garibaldi",
    "number": "14",
    "city": {
      "name": "Angera",
      "istat": "012003"
    },
    "latitude": 45.7722151,
    "longitude": 8.5757601
  },
  {
    "street": "Piazza Giuseppe Garibaldi",
    "number": "1",
    "city": {
      "name": "Angera",
      "istat": "012003"
    },
    "latitude": 45.7723945,
    "longitude": 8.5773894
  },
  {
    "street": "Piazza Giuseppe Garibaldi",
    "number": "42",
    "city": {
      "name": "Angera",
      "istat": "012003"
    },
    "latitude": 45.7713381,
    "longitude": 8.5730465
  },
  {
    "street": "Via Milano",
    "number": "15",
    "city": {
      "name": "Angera",
      "istat": "012003"
    },
    "latitude": 45.7714935,
    "longitude": 8.5936428
  },
  {
    "street": "Via Roma",
    "number": "2",
    "city": {
      "name": "Angera",
      "istat": "012003"
    },
    "latitude": 45.7734039,
    "longitude": 8.5789924
  },
  {
    "street": "Viale Pietro Martire",
    "number": "2",
    "city": {
      "name": "Angera",
      "istat": "012003"
    },
    "latitude": 45.7710367,
    "longitude": 8.569565
  },
  {
    "street": "Viale Pietro Martire",
    "number": "20",
    "city": {
      "name": "Angera",
      "istat": "012003"
    },
    "latitude": 45.7724033,
    "longitude": 8.5685999
  },
  {
    "street": "Via Europa",
    "number": "27",
    "city": {
      "name": "Angera",
      "istat": "012003"
    },
    "latitude": 45.7776207,
    "longitude": 8.5874397
  },
  {
    "street": "Via Roma",
    "number": "31",
    "city": {
      "name": "Angera",
      "istat": "012003"
    },
    "latitude": 45.7724019,
    "longitude": 8.5788791
  },
  {
    "street": "Via Roma",
    "number": "4",
    "city": {
      "name": "Angera",
      "istat": "012003"
    },
    "latitude": 45.7732942,
    "longitude": 8.578973
  },
  {
    "street": "Viale Repubblica",
    "number": "25",
    "city": {
      "name": "Angera",
      "istat": "012003"
    },
    "latitude": 45.7708113,
    "longitude": 8.5707143
  },
  {
    "street": "Via San Michele",
    "number": "35",
    "city": {
      "name": "Angera",
      "istat": "012003"
    },
    "latitude": 45.7785509,
    "longitude": 8.5866488
  },
  {
    "street": "Via Armando Diaz",
    "number": "24",
    "city": {
      "name": "Angera",
      "istat": "012003"
    },
    "latitude": 45.7734365,
    "longitude": 8.5789247
  },
  {
    "street": "Via Milano",
    "number": "2",
    "city": {
      "name": "Angera",
      "istat": "012003"
    },
    "latitude": 45.7723893,
    "longitude": 8.5926731
  },
  {
    "street": "Via Milano",
    "number": "63",
    "city": {
      "name": "Angera",
      "istat": "012003"
    },
    "latitude": 45.7680695,
    "longitude": 8.5957195
  },
  {
    "street": "Via Milano",
    "number": "33",
    "city": {
      "name": "Angera",
      "istat": "012003"
    },
    "latitude": 45.7698462,
    "longitude": 8.5948309
  },
  {
    "street": "Via Roma",
    "number": "37",
    "city": {
      "name": "Angera",
      "istat": "012003"
    },
    "latitude": 45.7722899,
    "longitude": 8.5786985
  },
  {
    "street": "Via Roma",
    "number": "39",
    "city": {
      "name": "Angera",
      "istat": "012003"
    },
    "latitude": 45.7722928,
    "longitude": 8.5785902
  },
  {
    "street": "Via San Martino",
    "number": "46",
    "city": {
      "name": "Angera",
      "istat": "012003"
    },
    "latitude": 45.7750217,
    "longitude": 8.5826144
  },
  {
    "street": "Via San Martino",
    "number": "60",
    "city": {
      "name": "Angera",
      "istat": "012003"
    },
    "latitude": 45.7761154,
    "longitude": 8.58334
  },
  {
    "street": "Via Milano",
    "number": "36",
    "city": {
      "name": "Angera",
      "istat": "012003"
    },
    "latitude": 45.7692495,
    "longitude": 8.5945458
  },
  {
    "street": "Via Varesina",
    "number": "41",
    "city": {
      "name": "Angera",
      "istat": "012003"
    },
    "latitude": 45.7812273,
    "longitude": 8.588416
  },
  {
    "street": "Via Europa",
    "number": "41",
    "city": {
      "name": "Angera",
      "istat": "012003"
    },
    "latitude": 45.7787616,
    "longitude": 8.5867038
  },
  {
    "street": "Via Camillo Benso Conte di Cavour",
    "number": "13",
    "city": {
      "name": "Angera",
      "istat": "012003"
    },
    "latitude": 45.7727098,
    "longitude": 8.5752868
  },
  {
    "street": "Via Ticino",
    "number": "3",
    "city": {
      "name": "Angera",
      "istat": "012003"
    },
    "latitude": 45.7732162,
    "longitude": 8.5819155
  },
  {
    "street": "Piazza Giuseppe Garibaldi",
    "number": "21",
    "city": {
      "name": "Angera",
      "istat": "012003"
    },
    "latitude": 45.7721829,
    "longitude": 8.5752525
  },
  {
    "street": "Piazza Giuseppe Garibaldi",
    "number": "20",
    "city": {
      "name": "Angera",
      "istat": "012003"
    },
    "latitude": 45.7720901,
    "longitude": 8.5753015
  },
  {
    "street": "Via Roma",
    "number": "1",
    "city": {
      "name": "Angera",
      "istat": "012003"
    },
    "latitude": 45.7733845,
    "longitude": 8.5792082
  },
  {
    "street": "Via Giove",
    "number": "9",
    "city": {
      "name": "Angera",
      "istat": "012003"
    },
    "latitude": 45.7734314,
    "longitude": 8.5829964
  },
  {
    "street": "Viale Pietro Martire",
    "number": "8",
    "city": {
      "name": "Angera",
      "istat": "012003"
    },
    "latitude": 45.7721828,
    "longitude": 8.5687801
  },
  {
    "street": "Via Giuseppe Mazzini",
    "number": "97",
    "city": {
      "name": "Angera",
      "istat": "012003"
    },
    "latitude": 45.7737095,
    "longitude": 8.5815184
  },
  {
    "street": "Via Guglielmo Marconi",
    "number": "2",
    "city": {
      "name": "Angera",
      "istat": "012003"
    },
    "latitude": 45.7732651,
    "longitude": 8.5765654
  },
  {
    "street": "Via dei Mille",
    "number": "5",
    "city": {
      "name": "Angera",
      "istat": "012003"
    },
    "latitude": 45.7741803,
    "longitude": 8.576416
  },
  {
    "street": "Via San Martino",
    "number": "13",
    "city": {
      "name": "Angera",
      "istat": "012003"
    },
    "latitude": 45.7748183,
    "longitude": 8.5824022
  },
  {
    "street": "Via San Martino",
    "number": "9",
    "city": {
      "name": "Angera",
      "istat": "012003"
    },
    "latitude": 45.7746527,
    "longitude": 8.582321
  },
  {
    "street": "Via Giacomo Matteotti",
    "number": "91",
    "city": {
      "name": "Angera",
      "istat": "012003"
    },
    "latitude": 45.7750057,
    "longitude": 8.5865369
  },
  {
    "street": "Via Armando Diaz",
    "number": "20",
    "city": {
      "name": "Angera",
      "istat": "012003"
    },
    "latitude": 45.7734894,
    "longitude": 8.5787398
  },
  {
    "street": "Via Armando Diaz",
    "number": "22",
    "city": {
      "name": "Angera",
      "istat": "012003"
    },
    "latitude": 45.7734707,
    "longitude": 8.5788202
  },
  {
    "street": "Via Luigi Cadorna",
    "number": "11",
    "city": {
      "name": "Angera",
      "istat": "012003"
    },
    "latitude": 45.7746231,
    "longitude": 8.5789302
  },
  {
    "street": "Via Luigi Cadorna",
    "number": "9",
    "city": {
      "name": "Angera",
      "istat": "012003"
    },
    "latitude": 45.7743462,
    "longitude": 8.5788524
  },
  {
    "street": "Via Giacomo Matteotti",
    "number": "5",
    "city": {
      "name": "Angera",
      "istat": "012003"
    },
    "latitude": 45.7738909,
    "longitude": 8.5822299
  },
  {
    "street": "Via Giacomo Matteotti",
    "number": "3",
    "city": {
      "name": "Angera",
      "istat": "012003"
    },
    "latitude": 45.7738743,
    "longitude": 8.5821717
  },
  {
    "street": "Via Giacomo Matteotti",
    "number": "1",
    "city": {
      "name": "Angera",
      "istat": "012003"
    },
    "latitude": 45.773861,
    "longitude": 8.582104
  },
  {
    "street": "Via San Martino",
    "number": "2",
    "city": {
      "name": "Angera",
      "istat": "012003"
    },
    "latitude": 45.7738643,
    "longitude": 8.5819673
  },
  {
    "street": "Via Giacomo Matteotti",
    "number": "87",
    "city": {
      "name": "Angera",
      "istat": "012003"
    },
    "latitude": 45.7749505,
    "longitude": 8.586266
  },
  {
    "street": "Via Giacomo Matteotti",
    "number": "85",
    "city": {
      "name": "Angera",
      "istat": "012003"
    },
    "latitude": 45.7748242,
    "longitude": 8.5857832
  },
  {
    "street": "Via Caduti Angeresi",
    "number": "36",
    "city": {
      "name": "Angera",
      "istat": "012003"
    },
    "latitude": 45.7747166,
    "longitude": 8.5893318
  },
  {
    "street": "Via Milano",
    "number": "40",
    "city": {
      "name": "Angera",
      "istat": "012003"
    },
    "latitude": 45.7685876,
    "longitude": 8.5951696
  },
  {
    "street": "Via Milano",
    "number": "38",
    "city": {
      "name": "Angera",
      "istat": "012003"
    },
    "latitude": 45.7687644,
    "longitude": 8.5951321
  },
  {
    "street": "Via Milano",
    "number": "100",
    "city": {
      "name": "Angera",
      "istat": "012003"
    },
    "latitude": 45.7629668,
    "longitude": 8.5987785
  },
  {
    "street": "Via Valcastellana",
    "number": "33",
    "city": {
      "name": "Angera",
      "istat": "012003"
    },
    "latitude": 45.7817563,
    "longitude": 8.5805917
  },
  {
    "street": "Via Giuseppe Verdi",
    "number": "35",
    "city": {
      "name": "Angera",
      "istat": "012003"
    },
    "latitude": 45.7711062,
    "longitude": 8.6011706
  },
  {
    "street": "Via Dante Alighieri",
    "number": "1",
    "city": {
      "name": "Angera",
      "istat": "012003"
    },
    "latitude": 45.7749017,
    "longitude": 8.5769702
  },
  {
    "street": "Via Madonnina",
    "number": "4",
    "city": {
      "name": "Angera",
      "istat": "012003"
    },
    "latitude": 45.7750277,
    "longitude": 8.5776
  },
  {
    "street": "Via Galileo Galilei",
    "number": "83",
    "city": {
      "name": "Angera",
      "istat": "012003"
    },
    "latitude": 45.7686861,
    "longitude": 8.5953419
  },
  {
    "street": "Via Milano",
    "number": "37",
    "city": {
      "name": "Angera",
      "istat": "012003"
    },
    "latitude": 45.7694549,
    "longitude": 8.5952345
  },
  {
    "street": "Via Galileo Galilei",
    "number": "81",
    "city": {
      "name": "Angera",
      "istat": "012003"
    },
    "latitude": 45.7688163,
    "longitude": 8.595287
  },
  {
    "street": "Piazza Parrocchiale",
    "number": "10",
    "city": {
      "name": "Angera",
      "istat": "012003"
    },
    "latitude": 45.773985,
    "longitude": 8.5776135
  },
  {
    "street": "Via Fornetto",
    "number": "18",
    "city": {
      "name": "Angera",
      "istat": "012003"
    },
    "latitude": 45.7795427,
    "longitude": 8.5686648
  },
  {
    "street": "Via Varesina",
    "number": "43",
    "city": {
      "name": "Angera",
      "istat": "012003"
    },
    "latitude": 45.7815404,
    "longitude": 8.5888541
  },
  {
    "street": "Via Bordini",
    "number": "9",
    "city": {
      "name": "Angera",
      "istat": "012003"
    },
    "latitude": 45.7756028,
    "longitude": 8.5789299
  },
  {
    "street": "Via Milano",
    "number": "16",
    "city": {
      "name": "Angera",
      "istat": "012003"
    },
    "latitude": 45.7702679,
    "longitude": 8.5942474
  },
  {
    "street": "Via Caduti Angeresi",
    "number": "29",
    "city": {
      "name": "Angera",
      "istat": "012003"
    },
    "latitude": 45.7747787,
    "longitude": 8.5907331
  },
  {
    "street": "Via Varesina",
    "number": "62",
    "city": {
      "name": "Angera",
      "istat": "012003"
    },
    "latitude": 45.7821177,
    "longitude": 8.591452
  },
  {
    "street": "Via Dante Alighieri",
    "number": "4",
    "city": {
      "name": "Angera",
      "istat": "012003"
    },
    "latitude": 45.7756767,
    "longitude": 8.576201
  },
  {
    "street": "Piazza Parrocchiale",
    "number": "14",
    "city": {
      "name": "Angera",
      "istat": "012003"
    },
    "latitude": 45.7745445,
    "longitude": 8.5783803
  },
  {
    "street": "Via Giuseppe Verdi",
    "number": "62",
    "city": {
      "name": "Angera",
      "istat": "012003"
    },
    "latitude": 45.7710479,
    "longitude": 8.5999057
  },
  {
    "street": "Via Dante Alighieri",
    "number": "2",
    "city": {
      "name": "Angera",
      "istat": "012003"
    },
    "latitude": 45.7753917,
    "longitude": 8.5768908
  }
]