[
  {
    "street": "Via Ventiquattro Maggio",
    "number": "1",
    "city": {
      "name": "Erba",
      "istat": "013095"
    },
    "latitude": 45.820965,
    "longitude": 9.2293583
  },
  {
    "street": "Via Capanna Mara",
    "number": "1",
    "city": {
      "name": "Erba",
      "istat": "013095"
    },
    "latitude": 45.8256454,
    "longitude": 9.1897593
  },
  {
    "street": "Via Giacomo Leopardi",
    "number": "24c",
    "city": {
      "name": "Erba",
      "istat": "013095"
    },
    "latitude": 45.8144722,
    "longitude": 9.2303533
  },
  {
    "street": "Via privata Benvenuto Joriati",
    "number": "6",
    "city": {
      "name": "Erba",
      "istat": "013095"
    },
    "latitude": 45.8092607,
    "longitude": 9.2308734
  },
  {
    "street": "Via Domenico Ghigliano",
    "number": "59",
    "city": {
      "name": "Erba",
      "istat": "013095"
    },
    "latitude": 45.8094476,
    "longitude": 9.2238935
  },
  {
    "street": "Via Lecco",
    "number": "5e",
    "city": {
      "name": "Erba",
      "istat": "013095"
    },
    "latitude": 45.8093876,
    "longitude": 9.2431033
  },
  {
    "street": "Via Barbiano di Belgiojoso",
    "number": "6",
    "city": {
      "name": "Erba",
      "istat": "013095"
    },
    "latitude": 45.7988569,
    "longitude": 9.202838
  },
  {
    "street": "Via Cesare Battisti",
    "number": "34",
    "city": {
      "name": "Erba",
      "istat": "013095"
    },
    "latitude": 45.8066411,
    "longitude": 9.220105
  },
  {
    "street": "Via delle Grigne",
    "number": "13",
    "city": {
      "name": "Erba",
      "istat": "013095"
    },
    "latitude": 45.802734,
    "longitude": 9.2271007
  },
  {
    "street": "Via Milano",
    "number": "9",
    "city": {
      "name": "Erba",
      "istat": "013095"
    },
    "latitude": 45.7997861,
    "longitude": 9.2390554
  },
  {
    "street": "Piazza Vittorio Veneto",
    "number": "32",
    "city": {
      "name": "Erba",
      "istat": "013095"
    },
    "latitude": 45.8074023,
    "longitude": 9.2263583
  },
  {
    "street": "Via ai Monti",
    "number": "1",
    "city": {
      "name": "Erba",
      "istat": "013095"
    },
    "latitude": 45.8242587,
    "longitude": 9.1874168
  },
  {
    "street": "Corso Venticinque Aprile",
    "number": "64",
    "city": {
      "name": "Erba",
      "istat": "013095"
    },
    "latitude": 45.810494,
    "longitude": 9.2302342
  },
  {
    "street": "Via Ugo Foscolo",
    "number": "23",
    "city": {
      "name": "Erba",
      "istat": "013095"
    },
    "latitude": 45.8153886,
    "longitude": 9.2158969
  },
  {
    "street": "Corso Battista Bartesaghi",
    "number": "1",
    "city": {
      "name": "Erba",
      "istat": "013095"
    },
    "latitude": 45.8103269,
    "longitude": 9.2185757
  },
  {
    "street": "Viale Prealpi",
    "number": "12",
    "city": {
      "name": "Erba",
      "istat": "013095"
    },
    "latitude": 45.8032092,
    "longitude": 9.2209055
  },
  {
    "street": "Via Lecco",
    "number": "5",
    "city": {
      "name": "Erba",
      "istat": "013095"
    },
    "latitude": 45.8097923,
    "longitude": 9.2417376
  },
  {
    "street": "Via Chiesa Molinari",
    "number": "20",
    "city": {
      "name": "Erba",
      "istat": "013095"
    },
    "latitude": 45.8087587,
    "longitude": 9.2150244
  },
  {
    "street": "Corso Venticinque Aprile",
    "number": "101",
    "city": {
      "name": "Erba",
      "istat": "013095"
    },
    "latitude": 45.8115899,
    "longitude": 9.2270297
  },
  {
    "street": "Viale Brianza",
    "number": "26",
    "city": {
      "name": "Erba",
      "istat": "013095"
    },
    "latitude": 45.7994197,
    "longitude": 9.2086878
  },
  {
    "street": "Via Pian d'Erba",
    "number": "8",
    "city": {
      "name": "Erba",
      "istat": "013095"
    },
    "latitude": 45.8037149,
    "longitude": 9.2192062
  },
  {
    "street": "Via cascina California",
    "number": "38",
    "city": {
      "name": "Erba",
      "istat": "013095"
    },
    "latitude": 45.7988184,
    "longitude": 9.2399284
  },
  {
    "street": "Via Barbiano di Belgiojoso",
    "number": "2",
    "city": {
      "name": "Erba",
      "istat": "013095"
    },
    "latitude": 45.7991887,
    "longitude": 9.2031124
  },
  {
    "street": "Viale Prealpi",
    "number": "2",
    "city": {
      "name": "Erba",
      "istat": "013095"
    },
    "latitude": 45.8041865,
    "longitude": 9.2212759
  },
  {
    "street": "Via Pian d'Erba",
    "number": "14",
    "city": {
      "name": "Erba",
      "istat": "013095"
    },
    "latitude": 45.8034016,
    "longitude": 9.219777
  },
  {
    "street": "Via Pian d'Erba",
    "number": "8/21",
    "city": {
      "name": "Erba",
      "istat": "013095"
    },
    "latitude": 45.8036016,
    "longitude": 9.2196724
  },
  {
    "street": "Via Pian d'Erba",
    "number": "6",
    "city": {
      "name": "Erba",
      "istat": "013095"
    },
    "latitude": 45.80374,
    "longitude": 9.2190796
  },
  {
    "street": "Via delle Grigne",
    "number": "1",
    "city": {
      "name": "Erba",
      "istat": "013095"
    },
    "latitude": 45.8030902,
    "longitude": 9.2244548
  },
  {
    "street": "Viale Prealpi",
    "number": "3",
    "city": {
      "name": "Erba",
      "istat": "013095"
    },
    "latitude": 45.8041719,
    "longitude": 9.2224055
  },
  {
    "street": "Via Ugo Foscolo",
    "number": "60",
    "city": {
      "name": "Erba",
      "istat": "013095"
    },
    "latitude": 45.8156485,
    "longitude": 9.2163184
  },
  {
    "street": "Via Ugo Foscolo",
    "number": "25",
    "city": {
      "name": "Erba",
      "istat": "013095"
    },
    "latitude": 45.8160626,
    "longitude": 9.2161321
  },
  {
    "street": "Viale Prealpi",
    "number": "1",
    "city": {
      "name": "Erba",
      "istat": "013095"
    },
    "latitude": 45.8044193,
    "longitude": 9.2211506
  },
  {
    "street": "Via Trieste",
    "number": "17",
    "city": {
      "name": "Erba",
      "istat": "013095"
    },
    "latitude": 45.8042654,
    "longitude": 9.2265013
  },
  {
    "street": "Viale Prealpi",
    "number": "27",
    "city": {
      "name": "Erba",
      "istat": "013095"
    },
    "latitude": 45.8041171,
    "longitude": 9.2272959
  },
  {
    "street": "Viale Resegone",
    "number": "1",
    "city": {
      "name": "Erba",
      "istat": "013095"
    },
    "latitude": 45.8060392,
    "longitude": 9.235362
  },
  {
    "street": "Via delle Grigne",
    "number": "14",
    "city": {
      "name": "Erba",
      "istat": "013095"
    },
    "latitude": 45.80319,
    "longitude": 9.2261067
  },
  {
    "street": "Via Monte Bollettone",
    "number": "39",
    "city": {
      "name": "Erba",
      "istat": "013095"
    },
    "latitude": 45.8040884,
    "longitude": 9.2237281
  },
  {
    "street": "Via Trieste",
    "number": "17/1",
    "city": {
      "name": "Erba",
      "istat": "013095"
    },
    "latitude": 45.8035882,
    "longitude": 9.2277873
  },
  {
    "street": "Via volontari della Libertà",
    "number": "2",
    "city": {
      "name": "Erba",
      "istat": "013095"
    },
    "latitude": 45.8104049,
    "longitude": 9.2342081
  },
  {
    "street": "Via Trieste",
    "number": "17/4",
    "city": {
      "name": "Erba",
      "istat": "013095"
    },
    "latitude": 45.8039831,
    "longitude": 9.2293713
  },
  {
    "street": "Via Trieste",
    "number": "24a",
    "city": {
      "name": "Erba",
      "istat": "013095"
    },
    "latitude": 45.8030953,
    "longitude": 9.2278593
  },
  {
    "street": "Via Milano",
    "number": "12d",
    "city": {
      "name": "Erba",
      "istat": "013095"
    },
    "latitude": 45.8049155,
    "longitude": 9.23422
  },
  {
    "street": "Via Milano",
    "number": "12",
    "city": {
      "name": "Erba",
      "istat": "013095"
    },
    "latitude": 45.8048525,
    "longitude": 9.2340099
  },
  {
    "street": "Via Riazzolo",
    "number": "24",
    "city": {
      "name": "Erba",
      "istat": "013095"
    },
    "latitude": 45.8029369,
    "longitude": 9.2047177
  },
  {
    "street": "Via Riazzolo",
    "number": "18",
    "city": {
      "name": "Erba",
      "istat": "013095"
    },
    "latitude": 45.8035455,
    "longitude": 9.2043462
  },
  {
    "street": "Via Riazzolo",
    "number": "16",
    "city": {
      "name": "Erba",
      "istat": "013095"
    },
    "latitude": 45.8037419,
    "longitude": 9.2045796
  },
  {
    "street": "Via Riazzolo",
    "number": "14",
    "city": {
      "name": "Erba",
      "istat": "013095"
    },
    "latitude": 45.8037475,
    "longitude": 9.204483
  },
  {
    "street": "Via Riazzolo",
    "number": "12",
    "city": {
      "name": "Erba",
      "istat": "013095"
    },
    "latitude": 45.803337,
    "longitude": 9.2035376
  },
  {
    "street": "Via Riazzolo",
    "number": "10",
    "city": {
      "name": "Erba",
      "istat": "013095"
    },
    "latitude": 45.8034437,
    "longitude": 9.203477
  },
  {
    "street": "Via Como",
    "number": "2",
    "city": {
      "name": "Erba",
      "istat": "013095"
    },
    "latitude": 45.8026349,
    "longitude": 9.1990972
  },
  {
    "street": "Via Como",
    "number": "4",
    "city": {
      "name": "Erba",
      "istat": "013095"
    },
    "latitude": 45.8031678,
    "longitude": 9.199926
  },
  {
    "street": "Via Antonio Stanga",
    "number": "36",
    "city": {
      "name": "Erba",
      "istat": "013095"
    },
    "latitude": 45.8016832,
    "longitude": 9.2001714
  },
  {
    "street": "Via Antonio Stanga",
    "number": "38",
    "city": {
      "name": "Erba",
      "istat": "013095"
    },
    "latitude": 45.8015766,
    "longitude": 9.2003752
  },
  {
    "street": "Via Antonio Stanga",
    "number": "7b",
    "city": {
      "name": "Erba",
      "istat": "013095"
    },
    "latitude": 45.8013643,
    "longitude": 9.200858
  },
  {
    "street": "Via Antonio Stanga",
    "number": "40",
    "city": {
      "name": "Erba",
      "istat": "013095"
    },
    "latitude": 45.8013868,
    "longitude": 9.2006622
  },
  {
    "street": "Via Antonio Stanga",
    "number": "42",
    "city": {
      "name": "Erba",
      "istat": "013095"
    },
    "latitude": 45.8012671,
    "longitude": 9.2007373
  },
  {
    "street": "Via Antonio Stanga",
    "number": "44",
    "city": {
      "name": "Erba",
      "istat": "013095"
    },
    "latitude": 45.8010324,
    "longitude": 9.2009103
  },
  {
    "street": "Via Antonio Stanga",
    "number": "11",
    "city": {
      "name": "Erba",
      "istat": "013095"
    },
    "latitude": 45.800795,
    "longitude": 9.201306
  },
  {
    "street": "Via Antonio Stanga",
    "number": "60",
    "city": {
      "name": "Erba",
      "istat": "013095"
    },
    "latitude": 45.7997517,
    "longitude": 9.2025134
  },
  {
    "street": "Via Antonio Stanga",
    "number": "13",
    "city": {
      "name": "Erba",
      "istat": "013095"
    },
    "latitude": 45.7997108,
    "longitude": 9.2027635
  },
  {
    "street": "Via Antonio Stanga",
    "number": "62",
    "city": {
      "name": "Erba",
      "istat": "013095"
    },
    "latitude": 45.7996753,
    "longitude": 9.2026465
  },
  {
    "street": "Via Antonio Stanga",
    "number": "66",
    "city": {
      "name": "Erba",
      "istat": "013095"
    },
    "latitude": 45.7993224,
    "longitude": 9.2031607
  },
  {
    "street": "Via Barbiano di Belgiojoso",
    "number": "1",
    "city": {
      "name": "Erba",
      "istat": "013095"
    },
    "latitude": 45.7993972,
    "longitude": 9.2033605
  },
  {
    "street": "Via Barbiano di Belgiojoso",
    "number": "6a",
    "city": {
      "name": "Erba",
      "istat": "013095"
    },
    "latitude": 45.7987193,
    "longitude": 9.202745
  },
  {
    "street": "Via Barbiano di Belgiojoso",
    "number": "17",
    "city": {
      "name": "Erba",
      "istat": "013095"
    },
    "latitude": 45.7986931,
    "longitude": 9.2021978
  },
  {
    "street": "Via Barbiano di Belgiojoso",
    "number": "19",
    "city": {
      "name": "Erba",
      "istat": "013095"
    },
    "latitude": 45.7987118,
    "longitude": 9.2020449
  },
  {
    "street": "Via Barbiano di Belgiojoso",
    "number": "8",
    "city": {
      "name": "Erba",
      "istat": "013095"
    },
    "latitude": 45.7987941,
    "longitude": 9.202112
  },
  {
    "street": "Via Cesare Cantù",
    "number": "46c",
    "city": {
      "name": "Erba",
      "istat": "013095"
    },
    "latitude": 45.7975272,
    "longitude": 9.2011249
  },
  {
    "street": "Via Cesare Cantù",
    "number": "46b",
    "city": {
      "name": "Erba",
      "istat": "013095"
    },
    "latitude": 45.7976197,
    "longitude": 9.2011799
  },
  {
    "street": "Via Cesare Cantù",
    "number": "46a",
    "city": {
      "name": "Erba",
      "istat": "013095"
    },
    "latitude": 45.7976861,
    "longitude": 9.2013073
  },
  {
    "street": "Via Cesare Cantù",
    "number": "46",
    "city": {
      "name": "Erba",
      "istat": "013095"
    },
    "latitude": 45.7975758,
    "longitude": 9.2013918
  },
  {
    "street": "Via Cesare Cantù",
    "number": "46d",
    "city": {
      "name": "Erba",
      "istat": "013095"
    },
    "latitude": 45.7974524,
    "longitude": 9.2014052
  },
  {
    "street": "Via Cesare Cantù",
    "number": "40",
    "city": {
      "name": "Erba",
      "istat": "013095"
    },
    "latitude": 45.7973023,
    "longitude": 9.2018451
  },
  {
    "street": "Via Cesare Cantù",
    "number": "50",
    "city": {
      "name": "Erba",
      "istat": "013095"
    },
    "latitude": 45.7967539,
    "longitude": 9.2017472
  },
  {
    "street": "Via Antonio Stanga",
    "number": "16",
    "city": {
      "name": "Erba",
      "istat": "013095"
    },
    "latitude": 45.8002622,
    "longitude": 9.1985674
  },
  {
    "street": "Via Antonio Stanga",
    "number": "10",
    "city": {
      "name": "Erba",
      "istat": "013095"
    },
    "latitude": 45.8009969,
    "longitude": 9.1991642
  },
  {
    "street": "Via Antonio Stanga",
    "number": "8",
    "city": {
      "name": "Erba",
      "istat": "013095"
    },
    "latitude": 45.8013989,
    "longitude": 9.199588
  },
  {
    "street": "Via Antonio Stanga",
    "number": "14",
    "city": {
      "name": "Erba",
      "istat": "013095"
    },
    "latitude": 45.8007463,
    "longitude": 9.1989094
  },
  {
    "street": "Via Antonio Stanga",
    "number": "12",
    "city": {
      "name": "Erba",
      "istat": "013095"
    },
    "latitude": 45.8009053,
    "longitude": 9.1990569
  },
  {
    "street": "Via Antonio Stanga",
    "number": "20",
    "city": {
      "name": "Erba",
      "istat": "013095"
    },
    "latitude": 45.8008024,
    "longitude": 9.1991267
  },
  {
    "street": "Via Antonio Stanga",
    "number": "18",
    "city": {
      "name": "Erba",
      "istat": "013095"
    },
    "latitude": 45.8004378,
    "longitude": 9.1987243
  },
  {
    "street": "Via Antonio Stanga",
    "number": "18a",
    "city": {
      "name": "Erba",
      "istat": "013095"
    },
    "latitude": 45.8006248,
    "longitude": 9.1989282
  },
  {
    "street": "Via Antonio Stanga",
    "number": "24",
    "city": {
      "name": "Erba",
      "istat": "013095"
    },
    "latitude": 45.8012176,
    "longitude": 9.1995585
  },
  {
    "street": "Via Antonio Stanga",
    "number": "7a",
    "city": {
      "name": "Erba",
      "istat": "013095"
    },
    "latitude": 45.8012961,
    "longitude": 9.2008728
  },
  {
    "street": "Via Antonio Stanga",
    "number": "7",
    "city": {
      "name": "Erba",
      "istat": "013095"
    },
    "latitude": 45.8027995,
    "longitude": 9.2002089
  },
  {
    "street": "Via Antonio Stanga",
    "number": "3",
    "city": {
      "name": "Erba",
      "istat": "013095"
    },
    "latitude": 45.8021872,
    "longitude": 9.1992971
  },
  {
    "street": "Via Antonio Stanga",
    "number": "1",
    "city": {
      "name": "Erba",
      "istat": "013095"
    },
    "latitude": 45.8022834,
    "longitude": 9.1991119
  },
  {
    "street": "Via Antonio Stanga",
    "number": "6",
    "city": {
      "name": "Erba",
      "istat": "013095"
    },
    "latitude": 45.8020123,
    "longitude": 9.1995706
  },
  {
    "street": "Via Antonio Stanga",
    "number": "2",
    "city": {
      "name": "Erba",
      "istat": "013095"
    },
    "latitude": 45.8021431,
    "longitude": 9.1992366
  },
  {
    "street": "Via Antonio Stanga",
    "number": "3a",
    "city": {
      "name": "Erba",
      "istat": "013095"
    },
    "latitude": 45.8022404,
    "longitude": 9.2001432
  },
  {
    "street": "Via Antonio Stanga",
    "number": "5",
    "city": {
      "name": "Erba",
      "istat": "013095"
    },
    "latitude": 45.8020665,
    "longitude": 9.2000158
  },
  {
    "street": "Via Antonio Stanga",
    "number": "34",
    "city": {
      "name": "Erba",
      "istat": "013095"
    },
    "latitude": 45.8010212,
    "longitude": 9.1999018
  },
  {
    "street": "Via Antonio Stanga",
    "number": "32",
    "city": {
      "name": "Erba",
      "istat": "013095"
    },
    "latitude": 45.8009819,
    "longitude": 9.1999125
  },
  {
    "street": "Via Antonio Stanga",
    "number": "46b",
    "city": {
      "name": "Erba",
      "istat": "013095"
    },
    "latitude": 45.8005378,
    "longitude": 9.2007883
  },
  {
    "street": "Via Antonio Stanga",
    "number": "46a",
    "city": {
      "name": "Erba",
      "istat": "013095"
    },
    "latitude": 45.8005509,
    "longitude": 9.2007695
  },
  {
    "street": "Via Antonio Stanga",
    "number": "46",
    "city": {
      "name": "Erba",
      "istat": "013095"
    },
    "latitude": 45.8007389,
    "longitude": 9.2011464
  },
  {
    "street": "Via Antonio Stanga",
    "number": "48",
    "city": {
      "name": "Erba",
      "istat": "013095"
    },
    "latitude": 45.8005958,
    "longitude": 9.2012939
  },
  {
    "street": "Via Antonio Stanga",
    "number": "72",
    "city": {
      "name": "Erba",
      "istat": "013095"
    },
    "latitude": 45.7993827,
    "longitude": 9.2037635
  },
  {
    "street": "Via Antonio Stanga",
    "number": "70",
    "city": {
      "name": "Erba",
      "istat": "013095"
    },
    "latitude": 45.7994144,
    "longitude": 9.2036084
  },
  {
    "street": "Via Cesare Cantù",
    "number": "48",
    "city": {
      "name": "Erba",
      "istat": "013095"
    },
    "latitude": 45.7969278,
    "longitude": 9.2018571
  },
  {
    "street": "Via Cesare Cantù",
    "number": "44",
    "city": {
      "name": "Erba",
      "istat": "013095"
    },
    "latitude": 45.7980781,
    "longitude": 9.2016348
  },
  {
    "street": "Via Cesare Cantù",
    "number": "42",
    "city": {
      "name": "Erba",
      "istat": "013095"
    },
    "latitude": 45.7977441,
    "longitude": 9.2018478
  },
  {
    "street": "Via Antonio Stanga",
    "number": "64",
    "city": {
      "name": "Erba",
      "istat": "013095"
    },
    "latitude": 45.7996188,
    "longitude": 9.2027637
  },
  {
    "street": "Via Barbiano di Belgiojoso",
    "number": "11",
    "city": {
      "name": "Erba",
      "istat": "013095"
    },
    "latitude": 45.7988899,
    "longitude": 9.2031039
  },
  {
    "street": "Via Barbiano di Belgiojoso",
    "number": "9",
    "city": {
      "name": "Erba",
      "istat": "013095"
    },
    "latitude": 45.7988476,
    "longitude": 9.2032042
  },
  {
    "street": "Via Barbiano di Belgiojoso",
    "number": "7",
    "city": {
      "name": "Erba",
      "istat": "013095"
    },
    "latitude": 45.798831,
    "longitude": 9.2032472
  },
  {
    "street": "Via Barbiano di Belgiojoso",
    "number": "5",
    "city": {
      "name": "Erba",
      "istat": "013095"
    },
    "latitude": 45.7987915,
    "longitude": 9.2033491
  },
  {
    "street": "Via Barbiano di Belgiojoso",
    "number": "3",
    "city": {
      "name": "Erba",
      "istat": "013095"
    },
    "latitude": 45.7990596,
    "longitude": 9.2031486
  },
  {
    "street": "Via Cesare Cantù",
    "number": "20",
    "city": {
      "name": "Erba",
      "istat": "013095"
    },
    "latitude": 45.8006603,
    "longitude": 9.2039278
  },
  {
    "street": "Via Antonio Stanga",
    "number": "22",
    "city": {
      "name": "Erba",
      "istat": "013095"
    },
    "latitude": 45.8009165,
    "longitude": 9.1992688
  },
  {
    "street": "Via Antonio Stanga",
    "number": "74",
    "city": {
      "name": "Erba",
      "istat": "013095"
    },
    "latitude": 45.7993272,
    "longitude": 9.2039175
  },
  {
    "street": "Via Milano",
    "number": "14",
    "city": {
      "name": "Erba",
      "istat": "013095"
    },
    "latitude": 45.806886,
    "longitude": 9.2335202
  },
  {
    "street": "Via Milano",
    "number": "6",
    "city": {
      "name": "Erba",
      "istat": "013095"
    },
    "latitude": 45.8089422,
    "longitude": 9.2337639
  },
  {
    "street": "Via Milano",
    "number": "12b",
    "city": {
      "name": "Erba",
      "istat": "013095"
    },
    "latitude": 45.8077743,
    "longitude": 9.2336382
  },
  {
    "street": "Via Valassina",
    "number": "22",
    "city": {
      "name": "Erba",
      "istat": "013095"
    },
    "latitude": 45.8139367,
    "longitude": 9.2386005
  },
  {
    "street": "Corso Venticinque Aprile",
    "number": "175",
    "city": {
      "name": "Erba",
      "istat": "013095"
    },
    "latitude": 45.8102813,
    "longitude": 9.2335505
  },
  {
    "street": "Via Cesare Beccaria",
    "number": "2",
    "city": {
      "name": "Erba",
      "istat": "013095"
    },
    "latitude": 45.8153806,
    "longitude": 9.2443686
  },
  {
    "street": "Piazza San Giovanni Battista de La Salle",
    "number": "2",
    "city": {
      "name": "Erba",
      "istat": "013095"
    },
    "latitude": 45.8117927,
    "longitude": 9.2132029
  },
  {
    "street": "Viale Prealpi",
    "number": "20",
    "city": {
      "name": "Erba",
      "istat": "013095"
    },
    "latitude": 45.8029567,
    "longitude": 9.2232491
  },
  {
    "street": "Via Milano",
    "number": "2",
    "city": {
      "name": "Erba",
      "istat": "013095"
    },
    "latitude": 45.8097462,
    "longitude": 9.2333321
  },
  {
    "street": "Via Milano",
    "number": "13",
    "city": {
      "name": "Erba",
      "istat": "013095"
    },
    "latitude": 45.798186,
    "longitude": 9.240067
  },
  {
    "street": "Via volontari della libertà",
    "number": "4",
    "city": {
      "name": "Erba",
      "istat": "013095"
    },
    "latitude": 45.8111728,
    "longitude": 9.2341493
  },
  {
    "street": "Corso Venticinque Aprile",
    "number": "149",
    "city": {
      "name": "Erba",
      "istat": "013095"
    },
    "latitude": 45.8110216,
    "longitude": 9.2311237
  },
  {
    "street": "Corso Venticinque Aprile",
    "number": "133",
    "city": {
      "name": "Erba",
      "istat": "013095"
    },
    "latitude": 45.8108597,
    "longitude": 9.2299126
  },
  {
    "street": "Corso Venticinque Aprile",
    "number": "123",
    "city": {
      "name": "Erba",
      "istat": "013095"
    },
    "latitude": 45.8112935,
    "longitude": 9.2281938
  },
  {
    "street": "Via Armando Diaz",
    "number": "4",
    "city": {
      "name": "Erba",
      "istat": "013095"
    },
    "latitude": 45.8092842,
    "longitude": 9.2245156
  },
  {
    "street": "Piazza Santa Maria Goretti",
    "number": "1",
    "city": {
      "name": "Erba",
      "istat": "013095"
    },
    "latitude": 45.8169195,
    "longitude": 9.216074
  },
  {
    "street": "Via Alessandro Volta",
    "number": "36",
    "city": {
      "name": "Erba",
      "istat": "013095"
    },
    "latitude": 45.8097407,
    "longitude": 9.2274675
  },
  {
    "street": "Via Alessandro Volta",
    "number": "58",
    "city": {
      "name": "Erba",
      "istat": "013095"
    },
    "latitude": 45.8081349,
    "longitude": 9.2273946
  },
  {
    "street": "Via Alessandro Volta",
    "number": "48",
    "city": {
      "name": "Erba",
      "istat": "013095"
    },
    "latitude": 45.8085434,
    "longitude": 9.2271009
  },
  {
    "street": "Via Alessandro Volta",
    "number": "46",
    "city": {
      "name": "Erba",
      "istat": "013095"
    },
    "latitude": 45.8088841,
    "longitude": 9.2272886
  },
  {
    "street": "Via Alessandro Volta",
    "number": "52",
    "city": {
      "name": "Erba",
      "istat": "013095"
    },
    "latitude": 45.8083028,
    "longitude": 9.2272352
  },
  {
    "street": "Via Fiume",
    "number": "14",
    "city": {
      "name": "Erba",
      "istat": "013095"
    },
    "latitude": 45.8096728,
    "longitude": 9.227787
  },
  {
    "street": "Via cascina California",
    "number": "10",
    "city": {
      "name": "Erba",
      "istat": "013095"
    },
    "latitude": 45.8004918,
    "longitude": 9.2395315
  },
  {
    "street": "Via 9 Agosto 1160",
    "number": "1",
    "city": {
      "name": "Erba",
      "istat": "013095"
    },
    "latitude": 45.7929632,
    "longitude": 9.2069533
  },
  {
    "street": "Via Lodorina",
    "number": "15",
    "city": {
      "name": "Erba",
      "istat": "013095"
    },
    "latitude": 45.808506,
    "longitude": 9.2024808
  },
  {
    "street": "Via Lodorina",
    "number": "13",
    "city": {
      "name": "Erba",
      "istat": "013095"
    },
    "latitude": 45.8084695,
    "longitude": 9.2025116
  },
  {
    "street": "Via Lodorina",
    "number": "11b",
    "city": {
      "name": "Erba",
      "istat": "013095"
    },
    "latitude": 45.8082105,
    "longitude": 9.2031701
  },
  {
    "street": "Via Lodorina",
    "number": "11a",
    "city": {
      "name": "Erba",
      "istat": "013095"
    },
    "latitude": 45.8077712,
    "longitude": 9.2034718
  },
  {
    "street": "Via Lodorina",
    "number": "11",
    "city": {
      "name": "Erba",
      "istat": "013095"
    },
    "latitude": 45.8077244,
    "longitude": 9.2034718
  },
  {
    "street": "Via Lodorina",
    "number": "5b",
    "city": {
      "name": "Erba",
      "istat": "013095"
    },
    "latitude": 45.8072411,
    "longitude": 9.202352
  },
  {
    "street": "Via Lodorina",
    "number": "7",
    "city": {
      "name": "Erba",
      "istat": "013095"
    },
    "latitude": 45.8073243,
    "longitude": 9.2022836
  },
  {
    "street": "Via Lodorina",
    "number": "9",
    "city": {
      "name": "Erba",
      "istat": "013095"
    },
    "latitude": 45.8072963,
    "longitude": 9.2029434
  },
  {
    "street": "Via Lodorina",
    "number": "5a",
    "city": {
      "name": "Erba",
      "istat": "013095"
    },
    "latitude": 45.807358,
    "longitude": 9.2034075
  },
  {
    "street": "Via Lodorina",
    "number": "3",
    "city": {
      "name": "Erba",
      "istat": "013095"
    },
    "latitude": 45.8074786,
    "longitude": 9.2036341
  },
  {
    "street": "Via Lodorina",
    "number": "11c",
    "city": {
      "name": "Erba",
      "istat": "013095"
    },
    "latitude": 45.8082152,
    "longitude": 9.2030333
  },
  {
    "street": "Via Pian d'Erba",
    "number": "20",
    "city": {
      "name": "Erba",
      "istat": "013095"
    },
    "latitude": 45.8029004,
    "longitude": 9.2206652
  },
  {
    "street": "Via Lecco",
    "number": "1",
    "city": {
      "name": "Erba",
      "istat": "013095"
    },
    "latitude": 45.8103155,
    "longitude": 9.2350858
  },
  {
    "street": "Via Lecco",
    "number": "4",
    "city": {
      "name": "Erba",
      "istat": "013095"
    },
    "latitude": 45.8101383,
    "longitude": 9.2355277
  },
  {
    "street": "Via Lecco",
    "number": "18",
    "city": {
      "name": "Erba",
      "istat": "013095"
    },
    "latitude": 45.8101242,
    "longitude": 9.2362238
  },
  {
    "street": "Via cascina California",
    "number": "6",
    "city": {
      "name": "Erba",
      "istat": "013095"
    },
    "latitude": 45.8015117,
    "longitude": 9.2377414
  },
  {
    "street": "Via Gerolamo Majnoni",
    "number": "3",
    "city": {
      "name": "Erba",
      "istat": "013095"
    },
    "latitude": 45.8116606,
    "longitude": 9.2238438
  },
  {
    "street": "Via Como",
    "number": "53",
    "city": {
      "name": "Erba",
      "istat": "013095"
    },
    "latitude": 45.8077066,
    "longitude": 9.2084655
  },
  {
    "street": "Via Lecco",
    "number": "22",
    "city": {
      "name": "Erba",
      "istat": "013095"
    },
    "latitude": 45.8098958,
    "longitude": 9.2392677
  },
  {
    "street": "Via Lecco",
    "number": "7",
    "city": {
      "name": "Erba",
      "istat": "013095"
    },
    "latitude": 45.8094291,
    "longitude": 9.2437425
  },
  {
    "street": "Via Lecco",
    "number": "20",
    "city": {
      "name": "Erba",
      "istat": "013095"
    },
    "latitude": 45.8100249,
    "longitude": 9.2381694
  },
  {
    "street": "Via Lecco",
    "number": "3",
    "city": {
      "name": "Erba",
      "istat": "013095"
    },
    "latitude": 45.8104019,
    "longitude": 9.236135
  },
  {
    "street": "Via Cesare Cantù",
    "number": "21",
    "city": {
      "name": "Erba",
      "istat": "013095"
    },
    "latitude": 45.7944276,
    "longitude": 9.2004856
  },
  {
    "street": "Via Dante Alighieri",
    "number": "58",
    "city": {
      "name": "Erba",
      "istat": "013095"
    },
    "latitude": 45.8126627,
    "longitude": 9.2300522
  },
  {
    "street": "Via Dante Alighieri",
    "number": "7",
    "city": {
      "name": "Erba",
      "istat": "013095"
    },
    "latitude": 45.811931,
    "longitude": 9.2295822
  },
  {
    "street": "Via Dante Alighieri",
    "number": "5c",
    "city": {
      "name": "Erba",
      "istat": "013095"
    },
    "latitude": 45.811836,
    "longitude": 9.229527
  },
  {
    "street": "Via Dante Alighieri",
    "number": "26b",
    "city": {
      "name": "Erba",
      "istat": "013095"
    },
    "latitude": 45.8120332,
    "longitude": 9.2298145
  },
  {
    "street": "Via Dante Alighieri",
    "number": "26",
    "city": {
      "name": "Erba",
      "istat": "013095"
    },
    "latitude": 45.811828,
    "longitude": 9.2296447
  },
  {
    "street": "Piazza Padania",
    "number": "12",
    "city": {
      "name": "Erba",
      "istat": "013095"
    },
    "latitude": 45.8126415,
    "longitude": 9.2302401
  },
  {
    "street": "Via Dante Alighieri",
    "number": "26a",
    "city": {
      "name": "Erba",
      "istat": "013095"
    },
    "latitude": 45.8119882,
    "longitude": 9.2298015
  },
  {
    "street": "Via Dante Alighieri",
    "number": "46",
    "city": {
      "name": "Erba",
      "istat": "013095"
    },
    "latitude": 45.8124237,
    "longitude": 9.2299703
  },
  {
    "street": "Via Dante Alighieri",
    "number": "40",
    "city": {
      "name": "Erba",
      "istat": "013095"
    },
    "latitude": 45.8122596,
    "longitude": 9.2299237
  },
  {
    "street": "Via Dante Alighieri",
    "number": "52",
    "city": {
      "name": "Erba",
      "istat": "013095"
    },
    "latitude": 45.8125634,
    "longitude": 9.2300195
  },
  {
    "street": "Via Dante Alighieri",
    "number": "28",
    "city": {
      "name": "Erba",
      "istat": "013095"
    },
    "latitude": 45.8120766,
    "longitude": 9.2298411
  },
  {
    "street": "Via Dante Alighieri",
    "number": "9",
    "city": {
      "name": "Erba",
      "istat": "013095"
    },
    "latitude": 45.8122758,
    "longitude": 9.2296638
  },
  {
    "street": "Via Dante Alighieri",
    "number": "48",
    "city": {
      "name": "Erba",
      "istat": "013095"
    },
    "latitude": 45.8124688,
    "longitude": 9.2299809
  },
  {
    "street": "Via Dante Alighieri",
    "number": "50",
    "city": {
      "name": "Erba",
      "istat": "013095"
    },
    "latitude": 45.8125431,
    "longitude": 9.2300062
  },
  {
    "street": "Via Dante Alighieri",
    "number": "44",
    "city": {
      "name": "Erba",
      "istat": "013095"
    },
    "latitude": 45.8123636,
    "longitude": 9.2299474
  },
  {
    "street": "Riazzolo",
    "number": "26",
    "city": {
      "name": "Erba",
      "istat": "013095"
    },
    "latitude": 45.8026963,
    "longitude": 9.2045406
  },
  {
    "street": "Piazza Padania",
    "number": "5",
    "city": {
      "name": "Erba",
      "istat": "013095"
    },
    "latitude": 45.8132538,
    "longitude": 9.2294831
  },
  {
    "street": "Via Giovanni Pascoli",
    "number": "3",
    "city": {
      "name": "Erba",
      "istat": "013095"
    },
    "latitude": 45.8134287,
    "longitude": 9.2294146
  },
  {
    "street": "Piazza Padania",
    "number": "6",
    "city": {
      "name": "Erba",
      "istat": "013095"
    },
    "latitude": 45.8132829,
    "longitude": 9.2294852
  },
  {
    "street": "Via Giovanni Pascoli",
    "number": "9",
    "city": {
      "name": "Erba",
      "istat": "013095"
    },
    "latitude": 45.8135834,
    "longitude": 9.2292444
  },
  {
    "street": "Via Giovanni Pascoli",
    "number": "13",
    "city": {
      "name": "Erba",
      "istat": "013095"
    },
    "latitude": 45.8139181,
    "longitude": 9.2289296
  },
  {
    "street": "Piazza Padania",
    "number": "7",
    "city": {
      "name": "Erba",
      "istat": "013095"
    },
    "latitude": 45.8133244,
    "longitude": 9.2294882
  },
  {
    "street": "Via Giovanni Pascoli",
    "number": "15",
    "city": {
      "name": "Erba",
      "istat": "013095"
    },
    "latitude": 45.8139387,
    "longitude": 9.2289067
  },
  {
    "street": "Via Giovanni Pascoli",
    "number": "17",
    "city": {
      "name": "Erba",
      "istat": "013095"
    },
    "latitude": 45.8139777,
    "longitude": 9.2288584
  },
  {
    "street": "Via Giovanni Pascoli",
    "number": "1",
    "city": {
      "name": "Erba",
      "istat": "013095"
    },
    "latitude": 45.8133856,
    "longitude": 9.2294512
  },
  {
    "street": "Piazza Padania",
    "number": "4",
    "city": {
      "name": "Erba",
      "istat": "013095"
    },
    "latitude": 45.8131726,
    "longitude": 9.2294773
  },
  {
    "street": "Via Giovanni Pascoli",
    "number": "11",
    "city": {
      "name": "Erba",
      "istat": "013095"
    },
    "latitude": 45.8138951,
    "longitude": 9.2289553
  },
  {
    "street": "Via Giovanni Pascoli",
    "number": "24",
    "city": {
      "name": "Erba",
      "istat": "013095"
    },
    "latitude": 45.8140057,
    "longitude": 9.228779
  },
  {
    "street": "Via Luciano Manara",
    "number": "4",
    "city": {
      "name": "Erba",
      "istat": "013095"
    },
    "latitude": 45.7993797,
    "longitude": 9.2285678
  },
  {
    "street": "Via Comana Lunga",
    "number": "18",
    "city": {
      "name": "Erba",
      "istat": "013095"
    },
    "latitude": 45.8011588,
    "longitude": 9.224537
  },
  {
    "street": "Via Trieste",
    "number": "26i",
    "city": {
      "name": "Erba",
      "istat": "013095"
    },
    "latitude": 45.7999455,
    "longitude": 9.2334801
  },
  {
    "street": "Via Trieste",
    "number": "43a",
    "city": {
      "name": "Erba",
      "istat": "013095"
    },
    "latitude": 45.7941919,
    "longitude": 9.2401932
  },
  {
    "street": "Via Trieste",
    "number": "26d",
    "city": {
      "name": "Erba",
      "istat": "013095"
    },
    "latitude": 45.8002495,
    "longitude": 9.2326152
  },
  {
    "street": "Via Comana Lunga",
    "number": "18d",
    "city": {
      "name": "Erba",
      "istat": "013095"
    },
    "latitude": 45.8007187,
    "longitude": 9.22517
  },
  {
    "street": "Via Trieste",
    "number": "26",
    "city": {
      "name": "Erba",
      "istat": "013095"
    },
    "latitude": 45.8007586,
    "longitude": 9.2321147
  },
  {
    "street": "Via Comana Lunga",
    "number": "22a",
    "city": {
      "name": "Erba",
      "istat": "013095"
    },
    "latitude": 45.800033,
    "longitude": 9.2271157
  },
  {
    "street": "Via Trieste",
    "number": "26o",
    "city": {
      "name": "Erba",
      "istat": "013095"
    },
    "latitude": 45.7994942,
    "longitude": 9.2341743
  },
  {
    "street": "Via Comana Lunga",
    "number": "16",
    "city": {
      "name": "Erba",
      "istat": "013095"
    },
    "latitude": 45.8015083,
    "longitude": 9.2241827
  },
  {
    "street": "Via Milano",
    "number": "20a",
    "city": {
      "name": "Erba",
      "istat": "013095"
    },
    "latitude": 45.7980131,
    "longitude": 9.2381382
  },
  {
    "street": "Via Trieste",
    "number": "43/A3",
    "city": {
      "name": "Erba",
      "istat": "013095"
    },
    "latitude": 45.7945924,
    "longitude": 9.2398234
  },
  {
    "street": "Via Trieste",
    "number": "43",
    "city": {
      "name": "Erba",
      "istat": "013095"
    },
    "latitude": 45.7950065,
    "longitude": 9.2394292
  },
  {
    "street": "Via Filippo Turati",
    "number": "1",
    "city": {
      "name": "Erba",
      "istat": "013095"
    },
    "latitude": 45.8058678,
    "longitude": 9.2278357
  },
  {
    "street": "Via Francesco Petrarca",
    "number": "1",
    "city": {
      "name": "Erba",
      "istat": "013095"
    },
    "latitude": 45.8114235,
    "longitude": 9.2307875
  },
  {
    "street": "Via Luigi Clerici",
    "number": "62",
    "city": {
      "name": "Erba",
      "istat": "013095"
    },
    "latitude": 45.815885,
    "longitude": 9.2170327
  },
  {
    "street": "Via Leonardo da Vinci",
    "number": "6",
    "city": {
      "name": "Erba",
      "istat": "013095"
    },
    "latitude": 45.8083062,
    "longitude": 9.2419948
  },
  {
    "street": "Viale Resegone",
    "number": "2",
    "city": {
      "name": "Erba",
      "istat": "013095"
    },
    "latitude": 45.8056144,
    "longitude": 9.2361939
  },
  {
    "street": "Viale Resegone",
    "number": "3",
    "city": {
      "name": "Erba",
      "istat": "013095"
    },
    "latitude": 45.8058277,
    "longitude": 9.2358787
  },
  {
    "street": "Via Milano",
    "number": "4",
    "city": {
      "name": "Erba",
      "istat": "013095"
    },
    "latitude": 45.8093506,
    "longitude": 9.2336427
  },
  {
    "street": "Via Milano",
    "number": "7",
    "city": {
      "name": "Erba",
      "istat": "013095"
    },
    "latitude": 45.7991732,
    "longitude": 9.2393227
  },
  {
    "street": "Via cascina California",
    "number": "13/15",
    "city": {
      "name": "Erba",
      "istat": "013095"
    },
    "latitude": 45.801355,
    "longitude": 9.23934
  },
  {
    "street": "Viale Prealpi",
    "number": "18",
    "city": {
      "name": "Erba",
      "istat": "013095"
    },
    "latitude": 45.8029673,
    "longitude": 9.2227495
  },
  {
    "street": "Via Volontari della Libertà",
    "number": "2",
    "city": {
      "name": "Erba",
      "istat": "013095"
    },
    "latitude": 45.8106357,
    "longitude": 9.2346263
  },
  {
    "street": "Via dei castani",
    "number": "1",
    "city": {
      "name": "Erba",
      "istat": "013095"
    },
    "latitude": 45.8193861,
    "longitude": 9.2118178
  },
  {
    "street": "Piazza Giuseppina Prina",
    "number": "1",
    "city": {
      "name": "Erba",
      "istat": "013095"
    },
    "latitude": 45.8108411,
    "longitude": 9.2236763
  },
  {
    "street": "Viale Magni",
    "number": "1",
    "city": {
      "name": "Erba",
      "istat": "013095"
    },
    "latitude": 45.8112424,
    "longitude": 9.2248849
  },
  {
    "street": "Via Luciano Manara",
    "number": "15",
    "city": {
      "name": "Erba",
      "istat": "013095"
    },
    "latitude": 45.7985272,
    "longitude": 9.2309673
  },
  {
    "street": "Via Alessandro Volta",
    "number": "28",
    "city": {
      "name": "Erba",
      "istat": "013095"
    },
    "latitude": 45.8098691,
    "longitude": 9.2270902
  },
  {
    "street": "Via Alessandro Volta",
    "number": "55",
    "city": {
      "name": "Erba",
      "istat": "013095"
    },
    "latitude": 45.8082216,
    "longitude": 9.2276938
  },
  {
    "street": "Via San Gaetano",
    "number": "14",
    "city": {
      "name": "Erba",
      "istat": "013095"
    },
    "latitude": 45.8047794,
    "longitude": 9.2165677
  },
  {
    "street": "Via Vincenzo Monti",
    "number": "21",
    "city": {
      "name": "Erba",
      "istat": "013095"
    },
    "latitude": 45.8200789,
    "longitude": 9.2177543
  },
  {
    "street": "Via Lecco",
    "number": "28",
    "city": {
      "name": "Erba",
      "istat": "013095"
    },
    "latitude": 45.8091342,
    "longitude": 9.2405099
  },
  {
    "street": "Via Lecco",
    "number": "9",
    "city": {
      "name": "Erba",
      "istat": "013095"
    },
    "latitude": 45.8088063,
    "longitude": 9.2442996
  },
  {
    "street": "Via San Francesco d'Assisi",
    "number": "5",
    "city": {
      "name": "Erba",
      "istat": "013095"
    },
    "latitude": 45.8059434,
    "longitude": 9.252154
  },
  {
    "street": "Via cascina California",
    "number": "23",
    "city": {
      "name": "Erba",
      "istat": "013095"
    },
    "latitude": 45.7991675,
    "longitude": 9.2427145
  },
  {
    "street": "Via Alessandro Volta",
    "number": "8",
    "city": {
      "name": "Erba",
      "istat": "013095"
    },
    "latitude": 45.8102547,
    "longitude": 9.2269404
  },
  {
    "street": "Via Milano",
    "number": "15",
    "city": {
      "name": "Erba",
      "istat": "013095"
    },
    "latitude": 45.7971706,
    "longitude": 9.2407765
  },
  {
    "street": "Via cascina California",
    "number": "9",
    "city": {
      "name": "Erba",
      "istat": "013095"
    },
    "latitude": 45.8015475,
    "longitude": 9.2392287
  },
  {
    "street": "Via cascina California",
    "number": "15",
    "city": {
      "name": "Erba",
      "istat": "013095"
    },
    "latitude": 45.801272,
    "longitude": 9.2395758
  },
  {
    "street": "Via Comana Lunga",
    "number": "24",
    "city": {
      "name": "Erba",
      "istat": "013095"
    },
    "latitude": 45.7999783,
    "longitude": 9.2274766
  },
  {
    "street": "Via Milano",
    "number": "10",
    "city": {
      "name": "Erba",
      "istat": "013095"
    },
    "latitude": 45.8083993,
    "longitude": 9.233657
  }
]