[
  {
    "street": "Piazza della Chiesa",
    "number": "1",
    "city": {
      "name": "Colverde",
      "istat": "013251"
    },
    "latitude": 45.8106002,
    "longitude": 9.0075564
  },
  {
    "street": "Via Mariani",
    "number": "24",
    "city": {
      "name": "Colverde",
      "istat": "013251"
    },
    "latitude": 45.8126218,
    "longitude": 9.0181715
  },
  {
    "street": "Via per ParÃ¨",
    "number": "48",
    "city": {
      "name": "Colverde",
      "istat": "013251"
    },
    "latitude": 45.8129194,
    "longitude": 8.9990699
  },
  {
    "street": "Via Parco Solare",
    "number": "251",
    "city": {
      "name": "Colverde",
      "istat": "013251"
    },
    "latitude": 45.8181878,
    "longitude": 9.0003445
  },
  {
    "street": "Via San Fermo",
    "number": "11",
    "city": {
      "name": "Colverde",
      "istat": "013251"
    },
    "latitude": 45.8111078,
    "longitude": 9.0086957
  },
  {
    "street": "Via Salvadonica",
    "number": "24",
    "city": {
      "name": "Colverde",
      "istat": "013251"
    },
    "latitude": 45.8027847,
    "longitude": 9.0099751
  },
  {
    "street": "Piazza Gianfranco Miglio",
    "number": "10",
    "city": {
      "name": "Colverde",
      "istat": "013251"
    },
    "latitude": 45.8157056,
    "longitude": 8.9952918
  },
  {
    "street": "Via della Muraglia",
    "number": "120",
    "city": {
      "name": "Colverde",
      "istat": "013251"
    },
    "latitude": 45.8158653,
    "longitude": 8.9943724
  },
  {
    "street": "Via Como",
    "number": "305",
    "city": {
      "name": "Colverde",
      "istat": "013251"
    },
    "latitude": 45.8149589,
    "longitude": 8.9950838
  },
  {
    "street": "Via Giacomo Leopardi",
    "number": "6c",
    "city": {
      "name": "Colverde",
      "istat": "013251"
    },
    "latitude": 45.8054892,
    "longitude": 9.0100381
  },
  {
    "street": "Via Bottia",
    "number": "159",
    "city": {
      "name": "Colverde",
      "istat": "013251"
    },
    "latitude": 45.8087893,
    "longitude": 9.0003825
  },
  {
    "street": "Via Leopardi",
    "number": "208",
    "city": {
      "name": "Colverde",
      "istat": "013251"
    },
    "latitude": 45.8055339,
    "longitude": 9.0110394
  },
  {
    "street": "Via al Molinello",
    "number": "68",
    "city": {
      "name": "Colverde",
      "istat": "013251"
    },
    "latitude": 45.8147052,
    "longitude": 8.994794
  },
  {
    "street": "via Garibaldi",
    "number": "2",
    "city": {
      "name": "Colverde",
      "istat": "013251"
    },
    "latitude": 45.8116717,
    "longitude": 9.003544
  },
  {
    "street": "Via alla Valle",
    "number": "7b",
    "city": {
      "name": "Colverde",
      "istat": "013251"
    },
    "latitude": 45.8119629,
    "longitude": 9.0074379
  }
]