[
  {
    "street": "Via Alessandro Manzoni",
    "number": "9a",
    "city": {
      "name": "Sulbiate",
      "istat": "108042"
    },
    "latitude": 45.6404093,
    "longitude": 9.4302354
  },
  {
    "street": "Via Quattro Novembre",
    "number": "7",
    "city": {
      "name": "Sulbiate",
      "istat": "108042"
    },
    "latitude": 45.6356224,
    "longitude": 9.4237496
  },
  {
    "street": "Via Don Pietro Mandelli",
    "number": "2",
    "city": {
      "name": "Sulbiate",
      "istat": "108042"
    },
    "latitude": 45.6342174,
    "longitude": 9.4206988
  },
  {
    "street": "Via Don Pietro Mandelli",
    "number": "1b",
    "city": {
      "name": "Sulbiate",
      "istat": "108042"
    },
    "latitude": 45.6336749,
    "longitude": 9.4197904
  },
  {
    "street": "Via Don Pietro Mandelli",
    "number": "21",
    "city": {
      "name": "Sulbiate",
      "istat": "108042"
    },
    "latitude": 45.6328068,
    "longitude": 9.4184868
  },
  {
    "street": "Via Madre Laura",
    "number": "1",
    "city": {
      "name": "Sulbiate",
      "istat": "108042"
    },
    "latitude": 45.6344015,
    "longitude": 9.4211419
  },
  {
    "street": "Via Giovanni Pascoli",
    "number": "20",
    "city": {
      "name": "Sulbiate",
      "istat": "108042"
    },
    "latitude": 45.6387581,
    "longitude": 9.4298563
  },
  {
    "street": "Via Giovanni Pascoli",
    "number": "22",
    "city": {
      "name": "Sulbiate",
      "istat": "108042"
    },
    "latitude": 45.6376038,
    "longitude": 9.4291073
  },
  {
    "street": "Via Giovanni Pascoli",
    "number": "11",
    "city": {
      "name": "Sulbiate",
      "istat": "108042"
    },
    "latitude": 45.6396817,
    "longitude": 9.4298851
  },
  {
    "street": "Via Giovanni Pascoli",
    "number": "2a",
    "city": {
      "name": "Sulbiate",
      "istat": "108042"
    },
    "latitude": 45.6399803,
    "longitude": 9.4299522
  },
  {
    "street": "Via Giovanni Pascoli",
    "number": "2",
    "city": {
      "name": "Sulbiate",
      "istat": "108042"
    },
    "latitude": 45.6396535,
    "longitude": 9.4295626
  },
  {
    "street": "Via Giovanni Pascoli",
    "number": "4",
    "city": {
      "name": "Sulbiate",
      "istat": "108042"
    },
    "latitude": 45.6394088,
    "longitude": 9.4295673
  },
  {
    "street": "Via Giovanni Pascoli",
    "number": "6",
    "city": {
      "name": "Sulbiate",
      "istat": "108042"
    },
    "latitude": 45.6393352,
    "longitude": 9.4296759
  },
  {
    "street": "Via Giovanni Pascoli",
    "number": "8",
    "city": {
      "name": "Sulbiate",
      "istat": "108042"
    },
    "latitude": 45.639323,
    "longitude": 9.4296793
  },
  {
    "street": "Via Giovanni Pascoli",
    "number": "19",
    "city": {
      "name": "Sulbiate",
      "istat": "108042"
    },
    "latitude": 45.6387351,
    "longitude": 9.430034
  },
  {
    "street": "Via Giovanni Pascoli",
    "number": "21",
    "city": {
      "name": "Sulbiate",
      "istat": "108042"
    },
    "latitude": 45.6386188,
    "longitude": 9.4300313
  },
  {
    "street": "Via Giovanni Pascoli",
    "number": "17",
    "city": {
      "name": "Sulbiate",
      "istat": "108042"
    },
    "latitude": 45.6389423,
    "longitude": 9.4300407
  },
  {
    "street": "Via Giacomo Leopardi",
    "number": "33",
    "city": {
      "name": "Sulbiate",
      "istat": "108042"
    },
    "latitude": 45.6385208,
    "longitude": 9.4305892
  },
  {
    "street": "Via Giacomo Leopardi",
    "number": "31",
    "city": {
      "name": "Sulbiate",
      "istat": "108042"
    },
    "latitude": 45.6385269,
    "longitude": 9.4304565
  },
  {
    "street": "Via Giacomo Leopardi",
    "number": "18",
    "city": {
      "name": "Sulbiate",
      "istat": "108042"
    },
    "latitude": 45.6383553,
    "longitude": 9.4308045
  },
  {
    "street": "Via Giacomo Leopardi",
    "number": "14",
    "city": {
      "name": "Sulbiate",
      "istat": "108042"
    },
    "latitude": 45.6383927,
    "longitude": 9.4304876
  },
  {
    "street": "Via Giacomo Leopardi",
    "number": "12",
    "city": {
      "name": "Sulbiate",
      "istat": "108042"
    },
    "latitude": 45.6383863,
    "longitude": 9.4301393
  },
  {
    "street": "Via Giacomo Leopardi",
    "number": "21",
    "city": {
      "name": "Sulbiate",
      "istat": "108042"
    },
    "latitude": 45.639459,
    "longitude": 9.4291703
  },
  {
    "street": "Via Giacomo Leopardi",
    "number": "13",
    "city": {
      "name": "Sulbiate",
      "istat": "108042"
    },
    "latitude": 45.6392794,
    "longitude": 9.4292086
  },
  {
    "street": "Via Giacomo Leopardi",
    "number": "15",
    "city": {
      "name": "Sulbiate",
      "istat": "108042"
    },
    "latitude": 45.6393258,
    "longitude": 9.4291992
  },
  {
    "street": "Via Giacomo Leopardi",
    "number": "17",
    "city": {
      "name": "Sulbiate",
      "istat": "108042"
    },
    "latitude": 45.6393446,
    "longitude": 9.4291965
  },
  {
    "street": "Via Giacomo Leopardi",
    "number": "19",
    "city": {
      "name": "Sulbiate",
      "istat": "108042"
    },
    "latitude": 45.6394402,
    "longitude": 9.4291757
  },
  {
    "street": "Via Giacomo Leopardi",
    "number": "23",
    "city": {
      "name": "Sulbiate",
      "istat": "108042"
    },
    "latitude": 45.6395054,
    "longitude": 9.4291838
  },
  {
    "street": "Via Giacomo Leopardi",
    "number": "11",
    "city": {
      "name": "Sulbiate",
      "istat": "108042"
    },
    "latitude": 45.6390619,
    "longitude": 9.4292475
  },
  {
    "street": "Via Giacomo Leopardi",
    "number": "9",
    "city": {
      "name": "Sulbiate",
      "istat": "108042"
    },
    "latitude": 45.6389386,
    "longitude": 9.4292696
  },
  {
    "street": "Via Giacomo Leopardi",
    "number": "7",
    "city": {
      "name": "Sulbiate",
      "istat": "108042"
    },
    "latitude": 45.6385602,
    "longitude": 9.4292407
  },
  {
    "street": "Via Giacomo Leopardi",
    "number": "5",
    "city": {
      "name": "Sulbiate",
      "istat": "108042"
    },
    "latitude": 45.6385504,
    "longitude": 9.4291549
  },
  {
    "street": "Via Giacomo Leopardi",
    "number": "3",
    "city": {
      "name": "Sulbiate",
      "istat": "108042"
    },
    "latitude": 45.6385485,
    "longitude": 9.4291247
  },
  {
    "street": "Via Giacomo Leopardi",
    "number": "1",
    "city": {
      "name": "Sulbiate",
      "istat": "108042"
    },
    "latitude": 45.6385419,
    "longitude": 9.4290409
  },
  {
    "street": "Via Giacomo Leopardi",
    "number": "4",
    "city": {
      "name": "Sulbiate",
      "istat": "108042"
    },
    "latitude": 45.6383549,
    "longitude": 9.4293071
  },
  {
    "street": "Via Giacomo Leopardi",
    "number": "2",
    "city": {
      "name": "Sulbiate",
      "istat": "108042"
    },
    "latitude": 45.6382766,
    "longitude": 9.428593
  },
  {
    "street": "Via Giacomo Leopardi",
    "number": "25",
    "city": {
      "name": "Sulbiate",
      "istat": "108042"
    },
    "latitude": 45.6385935,
    "longitude": 9.4296042
  },
  {
    "street": "Via Giovanni Pascoli",
    "number": "13",
    "city": {
      "name": "Sulbiate",
      "istat": "108042"
    },
    "latitude": 45.6391097,
    "longitude": 9.4300488
  },
  {
    "street": "Via Giovanni Pascoli",
    "number": "12",
    "city": {
      "name": "Sulbiate",
      "istat": "108042"
    },
    "latitude": 45.6391284,
    "longitude": 9.4296102
  },
  {
    "street": "Via Giovanni Pascoli",
    "number": "14",
    "city": {
      "name": "Sulbiate",
      "istat": "108042"
    },
    "latitude": 45.6390694,
    "longitude": 9.4296142
  },
  {
    "street": "Via Giovanni Pascoli",
    "number": "16",
    "city": {
      "name": "Sulbiate",
      "istat": "108042"
    },
    "latitude": 45.6390056,
    "longitude": 9.4296303
  },
  {
    "street": "Via Giovanni Pascoli",
    "number": "10",
    "city": {
      "name": "Sulbiate",
      "istat": "108042"
    },
    "latitude": 45.6391791,
    "longitude": 9.429857
  },
  {
    "street": "Via Giovanni Pascoli",
    "number": "18",
    "city": {
      "name": "Sulbiate",
      "istat": "108042"
    },
    "latitude": 45.63894,
    "longitude": 9.429857
  },
  {
    "street": "Via Don Pietro Mandelli",
    "number": "6",
    "city": {
      "name": "Sulbiate",
      "istat": "108042"
    },
    "latitude": 45.6341349,
    "longitude": 9.4205514
  },
  {
    "street": "Via Don Pietro Mandelli",
    "number": "4",
    "city": {
      "name": "Sulbiate",
      "istat": "108042"
    },
    "latitude": 45.6341858,
    "longitude": 9.4206563
  },
  {
    "street": "Via Don Pietro Mandelli",
    "number": "8",
    "city": {
      "name": "Sulbiate",
      "istat": "108042"
    },
    "latitude": 45.6341079,
    "longitude": 9.42048
  },
  {
    "street": "Via Don Pietro Mandelli",
    "number": "15",
    "city": {
      "name": "Sulbiate",
      "istat": "108042"
    },
    "latitude": 45.6329462,
    "longitude": 9.418511
  },
  {
    "street": "Via Guglielmo Marconi",
    "number": "7",
    "city": {
      "name": "Sulbiate",
      "istat": "108042"
    },
    "latitude": 45.632413,
    "longitude": 9.4166129
  },
  {
    "street": "Via Guglielmo Marconi",
    "number": "9",
    "city": {
      "name": "Sulbiate",
      "istat": "108042"
    },
    "latitude": 45.6323408,
    "longitude": 9.4162524
  },
  {
    "street": "Via Madre Laura",
    "number": "17",
    "city": {
      "name": "Sulbiate",
      "istat": "108042"
    },
    "latitude": 45.6359364,
    "longitude": 9.4227396
  },
  {
    "street": "Via Quattro Novembre",
    "number": "18",
    "city": {
      "name": "Sulbiate",
      "istat": "108042"
    },
    "latitude": 45.6339127,
    "longitude": 9.4230005
  },
  {
    "street": "Via Quattro Novembre",
    "number": "12",
    "city": {
      "name": "Sulbiate",
      "istat": "108042"
    },
    "latitude": 45.6336704,
    "longitude": 9.4225451
  },
  {
    "street": "Via Madre Laura",
    "number": "22",
    "city": {
      "name": "Sulbiate",
      "istat": "108042"
    },
    "latitude": 45.6355505,
    "longitude": 9.4229308
  },
  {
    "street": "Via Madre Laura",
    "number": "5",
    "city": {
      "name": "Sulbiate",
      "istat": "108042"
    },
    "latitude": 45.6346715,
    "longitude": 9.4213843
  },
  {
    "street": "Via Madre Laura",
    "number": "20",
    "city": {
      "name": "Sulbiate",
      "istat": "108042"
    },
    "latitude": 45.634554,
    "longitude": 9.4215424
  },
  {
    "street": "Via Madre Laura",
    "number": "18",
    "city": {
      "name": "Sulbiate",
      "istat": "108042"
    },
    "latitude": 45.6344355,
    "longitude": 9.4215605
  },
  {
    "street": "Via Madre Laura",
    "number": "10",
    "city": {
      "name": "Sulbiate",
      "istat": "108042"
    },
    "latitude": 45.6342797,
    "longitude": 9.4213681
  },
  {
    "street": "Via Madre Laura",
    "number": "8",
    "city": {
      "name": "Sulbiate",
      "istat": "108042"
    },
    "latitude": 45.6342667,
    "longitude": 9.4213186
  },
  {
    "street": "Via Madre Laura",
    "number": "6",
    "city": {
      "name": "Sulbiate",
      "istat": "108042"
    },
    "latitude": 45.6342391,
    "longitude": 9.4212134
  },
  {
    "street": "Via Madre Laura",
    "number": "25",
    "city": {
      "name": "Sulbiate",
      "istat": "108042"
    },
    "latitude": 45.6385917,
    "longitude": 9.4255991
  },
  {
    "street": "Via Madre Laura",
    "number": "35",
    "city": {
      "name": "Sulbiate",
      "istat": "108042"
    },
    "latitude": 45.6384119,
    "longitude": 9.4254967
  },
  {
    "street": "Via Madre Laura",
    "number": "33",
    "city": {
      "name": "Sulbiate",
      "istat": "108042"
    },
    "latitude": 45.6382544,
    "longitude": 9.4255486
  },
  {
    "street": "Via Madre Laura",
    "number": "31",
    "city": {
      "name": "Sulbiate",
      "istat": "108042"
    },
    "latitude": 45.6380041,
    "longitude": 9.4256962
  },
  {
    "street": "Via Madre Laura",
    "number": "29",
    "city": {
      "name": "Sulbiate",
      "istat": "108042"
    },
    "latitude": 45.6375387,
    "longitude": 9.4255058
  },
  {
    "street": "Via Madre Laura",
    "number": "19",
    "city": {
      "name": "Sulbiate",
      "istat": "108042"
    },
    "latitude": 45.6374062,
    "longitude": 9.4252601
  },
  {
    "street": "Via Quattro Novembre",
    "number": "10",
    "city": {
      "name": "Sulbiate",
      "istat": "108042"
    },
    "latitude": 45.633745,
    "longitude": 9.4223947
  },
  {
    "street": "Via Quattro Novembre",
    "number": "8",
    "city": {
      "name": "Sulbiate",
      "istat": "108042"
    },
    "latitude": 45.6334806,
    "longitude": 9.4220904
  },
  {
    "street": "Via Quattro Novembre",
    "number": "4",
    "city": {
      "name": "Sulbiate",
      "istat": "108042"
    },
    "latitude": 45.6335792,
    "longitude": 9.4217495
  },
  {
    "street": "Via Quattro Novembre",
    "number": "6",
    "city": {
      "name": "Sulbiate",
      "istat": "108042"
    },
    "latitude": 45.6336088,
    "longitude": 9.4218576
  },
  {
    "street": "Via Don Mario Ciceri",
    "number": "1",
    "city": {
      "name": "Sulbiate",
      "istat": "108042"
    },
    "latitude": 45.6340148,
    "longitude": 9.4200162
  },
  {
    "street": "Via Don Mario Ciceri",
    "number": "2",
    "city": {
      "name": "Sulbiate",
      "istat": "108042"
    },
    "latitude": 45.6342426,
    "longitude": 9.420086
  },
  {
    "street": "Via Don Mario Ciceri",
    "number": "5",
    "city": {
      "name": "Sulbiate",
      "istat": "108042"
    },
    "latitude": 45.6343034,
    "longitude": 9.4200324
  },
  {
    "street": "Via Don Mario Ciceri",
    "number": "7",
    "city": {
      "name": "Sulbiate",
      "istat": "108042"
    },
    "latitude": 45.6344151,
    "longitude": 9.4200369
  },
  {
    "street": "Via Don Mario Ciceri",
    "number": "13",
    "city": {
      "name": "Sulbiate",
      "istat": "108042"
    },
    "latitude": 45.6347116,
    "longitude": 9.4201297
  },
  {
    "street": "Via Don Mario Ciceri",
    "number": "15",
    "city": {
      "name": "Sulbiate",
      "istat": "108042"
    },
    "latitude": 45.6351123,
    "longitude": 9.4203654
  },
  {
    "street": "Via Don Mario Ciceri",
    "number": "17",
    "city": {
      "name": "Sulbiate",
      "istat": "108042"
    },
    "latitude": 45.6352463,
    "longitude": 9.4204228
  },
  {
    "street": "Via Don Mario Ciceri",
    "number": "19",
    "city": {
      "name": "Sulbiate",
      "istat": "108042"
    },
    "latitude": 45.6353138,
    "longitude": 9.4204735
  },
  {
    "street": "Via Don Mario Ciceri",
    "number": "21",
    "city": {
      "name": "Sulbiate",
      "istat": "108042"
    },
    "latitude": 45.6355017,
    "longitude": 9.4206172
  },
  {
    "street": "Via Don Mario Ciceri",
    "number": "38",
    "city": {
      "name": "Sulbiate",
      "istat": "108042"
    },
    "latitude": 45.6361162,
    "longitude": 9.421343
  },
  {
    "street": "Via Don Mario Ciceri",
    "number": "18",
    "city": {
      "name": "Sulbiate",
      "istat": "108042"
    },
    "latitude": 45.6354455,
    "longitude": 9.420858
  },
  {
    "street": "Via Don Mario Ciceri",
    "number": "23",
    "city": {
      "name": "Sulbiate",
      "istat": "108042"
    },
    "latitude": 45.6358213,
    "longitude": 9.4207835
  },
  {
    "street": "Via Don Mario Ciceri",
    "number": "27",
    "city": {
      "name": "Sulbiate",
      "istat": "108042"
    },
    "latitude": 45.6361406,
    "longitude": 9.4210752
  },
  {
    "street": "Via Don Mario Ciceri",
    "number": "29",
    "city": {
      "name": "Sulbiate",
      "istat": "108042"
    },
    "latitude": 45.636353,
    "longitude": 9.421259
  },
  {
    "street": "Via Achille Grandi",
    "number": "8",
    "city": {
      "name": "Sulbiate",
      "istat": "108042"
    },
    "latitude": 45.6362581,
    "longitude": 9.4218022
  },
  {
    "street": "Via Achille Grandi",
    "number": "6",
    "city": {
      "name": "Sulbiate",
      "istat": "108042"
    },
    "latitude": 45.636126,
    "longitude": 9.4221563
  },
  {
    "street": "Via Guglielmo Marconi",
    "number": "10",
    "city": {
      "name": "Sulbiate",
      "istat": "108042"
    },
    "latitude": 45.6328376,
    "longitude": 9.4171692
  },
  {
    "street": "Via Guglielmo Marconi",
    "number": "8",
    "city": {
      "name": "Sulbiate",
      "istat": "108042"
    },
    "latitude": 45.633052,
    "longitude": 9.4173723
  },
  {
    "street": "Via Guglielmo Marconi",
    "number": "6",
    "city": {
      "name": "Sulbiate",
      "istat": "108042"
    },
    "latitude": 45.6331463,
    "longitude": 9.4177647
  },
  {
    "street": "Via Guglielmo Marconi",
    "number": "2",
    "city": {
      "name": "Sulbiate",
      "istat": "108042"
    },
    "latitude": 45.6332357,
    "longitude": 9.4182609
  },
  {
    "street": "Via Guglielmo Marconi",
    "number": "4",
    "city": {
      "name": "Sulbiate",
      "istat": "108042"
    },
    "latitude": 45.633198,
    "longitude": 9.418003
  },
  {
    "street": "Via Guglielmo Marconi",
    "number": "1",
    "city": {
      "name": "Sulbiate",
      "istat": "108042"
    },
    "latitude": 45.6330583,
    "longitude": 9.4177165
  },
  {
    "street": "Via Guglielmo Marconi",
    "number": "3",
    "city": {
      "name": "Sulbiate",
      "istat": "108042"
    },
    "latitude": 45.632598,
    "longitude": 9.4171716
  },
  {
    "street": "Via Guglielmo Marconi",
    "number": "5",
    "city": {
      "name": "Sulbiate",
      "istat": "108042"
    },
    "latitude": 45.6325033,
    "longitude": 9.4168913
  },
  {
    "street": "Via Monte Grappa",
    "number": "4",
    "city": {
      "name": "Sulbiate",
      "istat": "108042"
    },
    "latitude": 45.633575,
    "longitude": 9.4181775
  },
  {
    "street": "Via Monte Grappa",
    "number": "2",
    "city": {
      "name": "Sulbiate",
      "istat": "108042"
    },
    "latitude": 45.6335297,
    "longitude": 9.4183925
  },
  {
    "street": "Via Monte Grappa",
    "number": "3",
    "city": {
      "name": "Sulbiate",
      "istat": "108042"
    },
    "latitude": 45.6335197,
    "longitude": 9.4181594
  },
  {
    "street": "Via Monte Grappa",
    "number": "5",
    "city": {
      "name": "Sulbiate",
      "istat": "108042"
    },
    "latitude": 45.6335733,
    "longitude": 9.4178686
  },
  {
    "street": "Via Pasubio",
    "number": "6",
    "city": {
      "name": "Sulbiate",
      "istat": "108042"
    },
    "latitude": 45.6338467,
    "longitude": 9.4178901
  },
  {
    "street": "Via Pasubio",
    "number": "8",
    "city": {
      "name": "Sulbiate",
      "istat": "108042"
    },
    "latitude": 45.634004,
    "longitude": 9.4179706
  },
  {
    "street": "Via Pasubio",
    "number": "10",
    "city": {
      "name": "Sulbiate",
      "istat": "108042"
    },
    "latitude": 45.634224,
    "longitude": 9.4180888
  },
  {
    "street": "Via Pasubio",
    "number": "12",
    "city": {
      "name": "Sulbiate",
      "istat": "108042"
    },
    "latitude": 45.634288,
    "longitude": 9.4181279
  },
  {
    "street": "Via Pasubio",
    "number": "17",
    "city": {
      "name": "Sulbiate",
      "istat": "108042"
    },
    "latitude": 45.6343674,
    "longitude": 9.4180803
  },
  {
    "street": "Via Pasubio",
    "number": "15",
    "city": {
      "name": "Sulbiate",
      "istat": "108042"
    },
    "latitude": 45.6342044,
    "longitude": 9.4179859
  },
  {
    "street": "Via Pasubio",
    "number": "13",
    "city": {
      "name": "Sulbiate",
      "istat": "108042"
    },
    "latitude": 45.634062,
    "longitude": 9.4179115
  },
  {
    "street": "Via Pasubio",
    "number": "9",
    "city": {
      "name": "Sulbiate",
      "istat": "108042"
    },
    "latitude": 45.633843,
    "longitude": 9.4177976
  },
  {
    "street": "Via Pasubio",
    "number": "5",
    "city": {
      "name": "Sulbiate",
      "istat": "108042"
    },
    "latitude": 45.6336317,
    "longitude": 9.417686
  },
  {
    "street": "Via Pasubio",
    "number": "3",
    "city": {
      "name": "Sulbiate",
      "istat": "108042"
    },
    "latitude": 45.6333727,
    "longitude": 9.4175439
  },
  {
    "street": "Via Pasubio",
    "number": "1",
    "city": {
      "name": "Sulbiate",
      "istat": "108042"
    },
    "latitude": 45.6332533,
    "longitude": 9.4174791
  },
  {
    "street": "Via Edmondo De Amicis",
    "number": "5",
    "city": {
      "name": "Sulbiate",
      "istat": "108042"
    },
    "latitude": 45.6327598,
    "longitude": 9.4197477
  },
  {
    "street": "Via Edmondo De Amicis",
    "number": "9",
    "city": {
      "name": "Sulbiate",
      "istat": "108042"
    },
    "latitude": 45.6323932,
    "longitude": 9.4198614
  },
  {
    "street": "Via Edmondo De Amicis",
    "number": "11",
    "city": {
      "name": "Sulbiate",
      "istat": "108042"
    },
    "latitude": 45.6323827,
    "longitude": 9.419864
  },
  {
    "street": "Via Edmondo De Amicis",
    "number": "13",
    "city": {
      "name": "Sulbiate",
      "istat": "108042"
    },
    "latitude": 45.6321907,
    "longitude": 9.4199136
  },
  {
    "street": "Via Edmondo De Amicis",
    "number": "15",
    "city": {
      "name": "Sulbiate",
      "istat": "108042"
    },
    "latitude": 45.6321817,
    "longitude": 9.4199167
  },
  {
    "street": "Via Edmondo De Amicis",
    "number": "17",
    "city": {
      "name": "Sulbiate",
      "istat": "108042"
    },
    "latitude": 45.6321151,
    "longitude": 9.4199303
  },
  {
    "street": "Via Edmondo De Amicis",
    "number": "19",
    "city": {
      "name": "Sulbiate",
      "istat": "108042"
    },
    "latitude": 45.6321024,
    "longitude": 9.4199362
  },
  {
    "street": "Via Edmondo De Amicis",
    "number": "20",
    "city": {
      "name": "Sulbiate",
      "istat": "108042"
    },
    "latitude": 45.6322825,
    "longitude": 9.4196705
  },
  {
    "street": "Via Edmondo De Amicis",
    "number": "14",
    "city": {
      "name": "Sulbiate",
      "istat": "108042"
    },
    "latitude": 45.6326263,
    "longitude": 9.4196321
  },
  {
    "street": "Via Edmondo De Amicis",
    "number": "12",
    "city": {
      "name": "Sulbiate",
      "istat": "108042"
    },
    "latitude": 45.6327004,
    "longitude": 9.4196096
  },
  {
    "street": "Via Edmondo De Amicis",
    "number": "10",
    "city": {
      "name": "Sulbiate",
      "istat": "108042"
    },
    "latitude": 45.6328294,
    "longitude": 9.4195752
  },
  {
    "street": "Via Edmondo De Amicis",
    "number": "8",
    "city": {
      "name": "Sulbiate",
      "istat": "108042"
    },
    "latitude": 45.6329291,
    "longitude": 9.4195494
  },
  {
    "street": "Via Edmondo De Amicis",
    "number": "6",
    "city": {
      "name": "Sulbiate",
      "istat": "108042"
    },
    "latitude": 45.6330684,
    "longitude": 9.41951
  },
  {
    "street": "Via Edmondo De Amicis",
    "number": "4",
    "city": {
      "name": "Sulbiate",
      "istat": "108042"
    },
    "latitude": 45.6332304,
    "longitude": 9.4194824
  },
  {
    "street": "Via Edmondo De Amicis",
    "number": "2",
    "city": {
      "name": "Sulbiate",
      "istat": "108042"
    },
    "latitude": 45.6334174,
    "longitude": 9.419467
  },
  {
    "street": "Via Piave",
    "number": "2",
    "city": {
      "name": "Sulbiate",
      "istat": "108042"
    },
    "latitude": 45.633603,
    "longitude": 9.4185992
  },
  {
    "street": "Via Piave",
    "number": "4",
    "city": {
      "name": "Sulbiate",
      "istat": "108042"
    },
    "latitude": 45.6341055,
    "longitude": 9.4188136
  },
  {
    "street": "Via Piave",
    "number": "6",
    "city": {
      "name": "Sulbiate",
      "istat": "108042"
    },
    "latitude": 45.6343183,
    "longitude": 9.4189027
  },
  {
    "street": "Via Piave",
    "number": "8",
    "city": {
      "name": "Sulbiate",
      "istat": "108042"
    },
    "latitude": 45.6346074,
    "longitude": 9.4190149
  },
  {
    "street": "Via Piave",
    "number": "10",
    "city": {
      "name": "Sulbiate",
      "istat": "108042"
    },
    "latitude": 45.6351264,
    "longitude": 9.4193128
  },
  {
    "street": "Via Piave",
    "number": "14",
    "city": {
      "name": "Sulbiate",
      "istat": "108042"
    },
    "latitude": 45.6353723,
    "longitude": 9.4195364
  },
  {
    "street": "Via Piave",
    "number": "20",
    "city": {
      "name": "Sulbiate",
      "istat": "108042"
    },
    "latitude": 45.6357807,
    "longitude": 9.4198222
  },
  {
    "street": "Via Piave",
    "number": "23",
    "city": {
      "name": "Sulbiate",
      "istat": "108042"
    },
    "latitude": 45.6358219,
    "longitude": 9.4201887
  },
  {
    "street": "Via Piave",
    "number": "21",
    "city": {
      "name": "Sulbiate",
      "istat": "108042"
    },
    "latitude": 45.6359666,
    "longitude": 9.4198134
  },
  {
    "street": "Via Piave",
    "number": "19h",
    "city": {
      "name": "Sulbiate",
      "istat": "108042"
    },
    "latitude": 45.6363121,
    "longitude": 9.419728
  },
  {
    "street": "Via Piave",
    "number": "17",
    "city": {
      "name": "Sulbiate",
      "istat": "108042"
    },
    "latitude": 45.6347598,
    "longitude": 9.4189662
  },
  {
    "street": "Via Piave",
    "number": "15",
    "city": {
      "name": "Sulbiate",
      "istat": "108042"
    },
    "latitude": 45.6347212,
    "longitude": 9.4188706
  },
  {
    "street": "Via Piave",
    "number": "13",
    "city": {
      "name": "Sulbiate",
      "istat": "108042"
    },
    "latitude": 45.634307,
    "longitude": 9.4187194
  },
  {
    "street": "Via Piave",
    "number": "7",
    "city": {
      "name": "Sulbiate",
      "istat": "108042"
    },
    "latitude": 45.6339313,
    "longitude": 9.4186108
  },
  {
    "street": "Via Piave",
    "number": "5",
    "city": {
      "name": "Sulbiate",
      "istat": "108042"
    },
    "latitude": 45.6337646,
    "longitude": 9.418564
  },
  {
    "street": "Via Piave",
    "number": "1",
    "city": {
      "name": "Sulbiate",
      "istat": "108042"
    },
    "latitude": 45.6333341,
    "longitude": 9.4183793
  },
  {
    "street": "Via Filanda",
    "number": "1",
    "city": {
      "name": "Sulbiate",
      "istat": "108042"
    },
    "latitude": 45.6319408,
    "longitude": 9.4183604
  },
  {
    "street": "Via Filanda",
    "number": "5",
    "city": {
      "name": "Sulbiate",
      "istat": "108042"
    },
    "latitude": 45.6318756,
    "longitude": 9.4184563
  },
  {
    "street": "Via Alessandro Volta",
    "number": "14",
    "city": {
      "name": "Sulbiate",
      "istat": "108042"
    },
    "latitude": 45.631176,
    "longitude": 9.4171138
  },
  {
    "street": "Via Alessandro Volta",
    "number": "8",
    "city": {
      "name": "Sulbiate",
      "istat": "108042"
    },
    "latitude": 45.6313987,
    "longitude": 9.4170337
  },
  {
    "street": "Via Alessandro Volta",
    "number": "6",
    "city": {
      "name": "Sulbiate",
      "istat": "108042"
    },
    "latitude": 45.6314859,
    "longitude": 9.4170535
  },
  {
    "street": "Via Alessandro Volta",
    "number": "7",
    "city": {
      "name": "Sulbiate",
      "istat": "108042"
    },
    "latitude": 45.631439,
    "longitude": 9.4171721
  },
  {
    "street": "Via Alessandro Volta",
    "number": "5",
    "city": {
      "name": "Sulbiate",
      "istat": "108042"
    },
    "latitude": 45.6314367,
    "longitude": 9.4172298
  },
  {
    "street": "Via Alessandro Volta",
    "number": "4",
    "city": {
      "name": "Sulbiate",
      "istat": "108042"
    },
    "latitude": 45.6314939,
    "longitude": 9.4172768
  },
  {
    "street": "Via Alessandro Volta",
    "number": "3",
    "city": {
      "name": "Sulbiate",
      "istat": "108042"
    },
    "latitude": 45.6314407,
    "longitude": 9.4176033
  },
  {
    "street": "Via Alessandro Volta",
    "number": "1",
    "city": {
      "name": "Sulbiate",
      "istat": "108042"
    },
    "latitude": 45.63144,
    "longitude": 9.4179329
  },
  {
    "street": "Via Filanda",
    "number": "7",
    "city": {
      "name": "Sulbiate",
      "istat": "108042"
    },
    "latitude": 45.631884,
    "longitude": 9.4189142
  },
  {
    "street": "Via Filanda",
    "number": "9",
    "city": {
      "name": "Sulbiate",
      "istat": "108042"
    },
    "latitude": 45.6318882,
    "longitude": 9.419165
  },
  {
    "street": "Via Filanda",
    "number": "13",
    "city": {
      "name": "Sulbiate",
      "istat": "108042"
    },
    "latitude": 45.6319604,
    "longitude": 9.4202178
  },
  {
    "street": "Via Filanda",
    "number": "26",
    "city": {
      "name": "Sulbiate",
      "istat": "108042"
    },
    "latitude": 45.6318791,
    "longitude": 9.422203
  },
  {
    "street": "Via Filanda",
    "number": "25",
    "city": {
      "name": "Sulbiate",
      "istat": "108042"
    },
    "latitude": 45.6330708,
    "longitude": 9.4236289
  },
  {
    "street": "Via Enrico Fermi",
    "number": "29",
    "city": {
      "name": "Sulbiate",
      "istat": "108042"
    },
    "latitude": 45.631349,
    "longitude": 9.4147199
  },
  {
    "street": "Via Enrico Fermi",
    "number": "44",
    "city": {
      "name": "Sulbiate",
      "istat": "108042"
    },
    "latitude": 45.6315539,
    "longitude": 9.4148339
  },
  {
    "street": "Via Enrico Fermi",
    "number": "27b",
    "city": {
      "name": "Sulbiate",
      "istat": "108042"
    },
    "latitude": 45.6313673,
    "longitude": 9.4149268
  },
  {
    "street": "Via Enrico Fermi",
    "number": "42",
    "city": {
      "name": "Sulbiate",
      "istat": "108042"
    },
    "latitude": 45.6314526,
    "longitude": 9.4151598
  },
  {
    "street": "Via Enrico Fermi",
    "number": "27a",
    "city": {
      "name": "Sulbiate",
      "istat": "108042"
    },
    "latitude": 45.631323,
    "longitude": 9.4151652
  },
  {
    "street": "Via Enrico Fermi",
    "number": "25",
    "city": {
      "name": "Sulbiate",
      "istat": "108042"
    },
    "latitude": 45.6312991,
    "longitude": 9.4153016
  },
  {
    "street": "Via Enrico Fermi",
    "number": "21",
    "city": {
      "name": "Sulbiate",
      "istat": "108042"
    },
    "latitude": 45.6312022,
    "longitude": 9.415938
  },
  {
    "street": "Via Enrico Fermi",
    "number": "19",
    "city": {
      "name": "Sulbiate",
      "istat": "108042"
    },
    "latitude": 45.6311474,
    "longitude": 9.4162967
  },
  {
    "street": "Via Enrico Fermi",
    "number": "28",
    "city": {
      "name": "Sulbiate",
      "istat": "108042"
    },
    "latitude": 45.6314897,
    "longitude": 9.4167292
  },
  {
    "street": "Via Enrico Fermi",
    "number": "26",
    "city": {
      "name": "Sulbiate",
      "istat": "108042"
    },
    "latitude": 45.6314728,
    "longitude": 9.4167869
  },
  {
    "street": "Via Enrico Fermi",
    "number": "22",
    "city": {
      "name": "Sulbiate",
      "istat": "108042"
    },
    "latitude": 45.63124,
    "longitude": 9.416865
  },
  {
    "street": "Via Enrico Fermi",
    "number": "20",
    "city": {
      "name": "Sulbiate",
      "istat": "108042"
    },
    "latitude": 45.6311983,
    "longitude": 9.4168473
  },
  {
    "street": "Via Enrico Fermi",
    "number": "18",
    "city": {
      "name": "Sulbiate",
      "istat": "108042"
    },
    "latitude": 45.6311418,
    "longitude": 9.4168389
  },
  {
    "street": "Via Enrico Fermi",
    "number": "12",
    "city": {
      "name": "Sulbiate",
      "istat": "108042"
    },
    "latitude": 45.6311919,
    "longitude": 9.4175353
  },
  {
    "street": "Via Enrico Fermi",
    "number": "8",
    "city": {
      "name": "Sulbiate",
      "istat": "108042"
    },
    "latitude": 45.6312088,
    "longitude": 9.4175822
  },
  {
    "street": "Via Enrico Fermi",
    "number": "6",
    "city": {
      "name": "Sulbiate",
      "istat": "108042"
    },
    "latitude": 45.6312079,
    "longitude": 9.4175892
  },
  {
    "street": "Via Enrico Fermi",
    "number": "4",
    "city": {
      "name": "Sulbiate",
      "istat": "108042"
    },
    "latitude": 45.631213,
    "longitude": 9.4177274
  },
  {
    "street": "Via Primo Maggio",
    "number": "24",
    "city": {
      "name": "Sulbiate",
      "istat": "108042"
    },
    "latitude": 45.6307358,
    "longitude": 9.4145193
  },
  {
    "street": "Via Primo Maggio",
    "number": "22",
    "city": {
      "name": "Sulbiate",
      "istat": "108042"
    },
    "latitude": 45.6307306,
    "longitude": 9.4147635
  },
  {
    "street": "Via Primo Maggio",
    "number": "20",
    "city": {
      "name": "Sulbiate",
      "istat": "108042"
    },
    "latitude": 45.6307073,
    "longitude": 9.4150145
  },
  {
    "street": "Via Primo Maggio",
    "number": "18",
    "city": {
      "name": "Sulbiate",
      "istat": "108042"
    },
    "latitude": 45.6306818,
    "longitude": 9.4152662
  },
  {
    "street": "Via Primo Maggio",
    "number": "16",
    "city": {
      "name": "Sulbiate",
      "istat": "108042"
    },
    "latitude": 45.6306616,
    "longitude": 9.4155167
  },
  {
    "street": "Via Primo Maggio",
    "number": "6",
    "city": {
      "name": "Sulbiate",
      "istat": "108042"
    },
    "latitude": 45.6304641,
    "longitude": 9.416209
  },
  {
    "street": "Via Primo Maggio",
    "number": "9",
    "city": {
      "name": "Sulbiate",
      "istat": "108042"
    },
    "latitude": 45.6300546,
    "longitude": 9.4159755
  },
  {
    "street": "Via Primo Maggio",
    "number": "5",
    "city": {
      "name": "Sulbiate",
      "istat": "108042"
    },
    "latitude": 45.6299857,
    "longitude": 9.4159767
  },
  {
    "street": "Via Primo Maggio",
    "number": "11",
    "city": {
      "name": "Sulbiate",
      "istat": "108042"
    },
    "latitude": 45.6302039,
    "longitude": 9.4159749
  },
  {
    "street": "Via Quattro Novembre",
    "number": "33",
    "city": {
      "name": "Sulbiate",
      "istat": "108042"
    },
    "latitude": 45.6355759,
    "longitude": 9.4320655
  },
  {
    "street": "Via Quattro Novembre",
    "number": "31",
    "city": {
      "name": "Sulbiate",
      "istat": "108042"
    },
    "latitude": 45.6355794,
    "longitude": 9.4319048
  },
  {
    "street": "Via Quattro Novembre",
    "number": "29",
    "city": {
      "name": "Sulbiate",
      "istat": "108042"
    },
    "latitude": 45.6355583,
    "longitude": 9.4316732
  },
  {
    "street": "Via Quattro Novembre",
    "number": "27",
    "city": {
      "name": "Sulbiate",
      "istat": "108042"
    },
    "latitude": 45.6355298,
    "longitude": 9.4312765
  },
  {
    "street": "Via Quattro Novembre",
    "number": "21",
    "city": {
      "name": "Sulbiate",
      "istat": "108042"
    },
    "latitude": 45.6354192,
    "longitude": 9.4299923
  },
  {
    "street": "Via Quattro Novembre",
    "number": "19",
    "city": {
      "name": "Sulbiate",
      "istat": "108042"
    },
    "latitude": 45.6354166,
    "longitude": 9.4299452
  },
  {
    "street": "Via Quattro Novembre",
    "number": "17",
    "city": {
      "name": "Sulbiate",
      "istat": "108042"
    },
    "latitude": 45.6353881,
    "longitude": 9.4297337
  },
  {
    "street": "Via Quattro Novembre",
    "number": "24",
    "city": {
      "name": "Sulbiate",
      "istat": "108042"
    },
    "latitude": 45.6351348,
    "longitude": 9.4285832
  },
  {
    "street": "Via Quattro Novembre",
    "number": "15",
    "city": {
      "name": "Sulbiate",
      "istat": "108042"
    },
    "latitude": 45.6352739,
    "longitude": 9.4286629
  },
  {
    "street": "Via Quattro Novembre",
    "number": "13",
    "city": {
      "name": "Sulbiate",
      "istat": "108042"
    },
    "latitude": 45.6352353,
    "longitude": 9.4284395
  },
  {
    "street": "Via Quattro Novembre",
    "number": "11",
    "city": {
      "name": "Sulbiate",
      "istat": "108042"
    },
    "latitude": 45.6352252,
    "longitude": 9.4282782
  },
  {
    "street": "Via Giuseppe Ungaretti",
    "number": "26",
    "city": {
      "name": "Sulbiate",
      "istat": "108042"
    },
    "latitude": 45.6379916,
    "longitude": 9.4310101
  },
  {
    "street": "Via Giuseppe Ungaretti",
    "number": "24",
    "city": {
      "name": "Sulbiate",
      "istat": "108042"
    },
    "latitude": 45.6380954,
    "longitude": 9.4309953
  },
  {
    "street": "Via Giuseppe Ungaretti",
    "number": "20",
    "city": {
      "name": "Sulbiate",
      "istat": "108042"
    },
    "latitude": 45.6381948,
    "longitude": 9.4309884
  },
  {
    "street": "Via Giuseppe Ungaretti",
    "number": "12",
    "city": {
      "name": "Sulbiate",
      "istat": "108042"
    },
    "latitude": 45.6388133,
    "longitude": 9.4310314
  },
  {
    "street": "Via Roma",
    "number": "10",
    "city": {
      "name": "Sulbiate",
      "istat": "108042"
    },
    "latitude": 45.6377452,
    "longitude": 9.4277779
  },
  {
    "street": "Via Roma",
    "number": "18",
    "city": {
      "name": "Sulbiate",
      "istat": "108042"
    },
    "latitude": 45.6382551,
    "longitude": 9.427692
  },
  {
    "street": "Via Roma",
    "number": "20",
    "city": {
      "name": "Sulbiate",
      "istat": "108042"
    },
    "latitude": 45.6383425,
    "longitude": 9.427675
  },
  {
    "street": "Via Roma",
    "number": "24",
    "city": {
      "name": "Sulbiate",
      "istat": "108042"
    },
    "latitude": 45.6384311,
    "longitude": 9.4275727
  },
  {
    "street": "Via Roma",
    "number": "11",
    "city": {
      "name": "Sulbiate",
      "istat": "108042"
    },
    "latitude": 45.6389661,
    "longitude": 9.4280209
  },
  {
    "street": "Via Roma",
    "number": "9",
    "city": {
      "name": "Sulbiate",
      "istat": "108042"
    },
    "latitude": 45.6387817,
    "longitude": 9.4276995
  },
  {
    "street": "Via Roma",
    "number": "7",
    "city": {
      "name": "Sulbiate",
      "istat": "108042"
    },
    "latitude": 45.6387594,
    "longitude": 9.4273926
  },
  {
    "street": "Via Roma",
    "number": "5",
    "city": {
      "name": "Sulbiate",
      "istat": "108042"
    },
    "latitude": 45.6386334,
    "longitude": 9.4273198
  },
  {
    "street": "Via Roma",
    "number": "3",
    "city": {
      "name": "Sulbiate",
      "istat": "108042"
    },
    "latitude": 45.6384794,
    "longitude": 9.4270587
  },
  {
    "street": "Via Roma",
    "number": "1",
    "city": {
      "name": "Sulbiate",
      "istat": "108042"
    },
    "latitude": 45.6384017,
    "longitude": 9.4267793
  },
  {
    "street": "Via Roma",
    "number": "8",
    "city": {
      "name": "Sulbiate",
      "istat": "108042"
    },
    "latitude": 45.6382011,
    "longitude": 9.4266689
  },
  {
    "street": "Via Roma",
    "number": "1a",
    "city": {
      "name": "Sulbiate",
      "istat": "108042"
    },
    "latitude": 45.6380849,
    "longitude": 9.4262537
  },
  {
    "street": "Via Roma",
    "number": "4",
    "city": {
      "name": "Sulbiate",
      "istat": "108042"
    },
    "latitude": 45.6379797,
    "longitude": 9.4263171
  },
  {
    "street": "Via Salvatore Quasimodo",
    "number": "22",
    "city": {
      "name": "Sulbiate",
      "istat": "108042"
    },
    "latitude": 45.639142,
    "longitude": 9.4309203
  },
  {
    "street": "Via Salvatore Quasimodo",
    "number": "12",
    "city": {
      "name": "Sulbiate",
      "istat": "108042"
    },
    "latitude": 45.6391418,
    "longitude": 9.4305993
  },
  {
    "street": "Via Salvatore Quasimodo",
    "number": "14",
    "city": {
      "name": "Sulbiate",
      "istat": "108042"
    },
    "latitude": 45.6391416,
    "longitude": 9.4306215
  },
  {
    "street": "Via Salvatore Quasimodo",
    "number": "7",
    "city": {
      "name": "Sulbiate",
      "istat": "108042"
    },
    "latitude": 45.6392829,
    "longitude": 9.430593
  },
  {
    "street": "Via Salvatore Quasimodo",
    "number": "5",
    "city": {
      "name": "Sulbiate",
      "istat": "108042"
    },
    "latitude": 45.6392809,
    "longitude": 9.4303187
  },
  {
    "street": "Via Salvatore Quasimodo",
    "number": "3",
    "city": {
      "name": "Sulbiate",
      "istat": "108042"
    },
    "latitude": 45.6392948,
    "longitude": 9.430159
  },
  {
    "street": "Via Salvatore Quasimodo",
    "number": "1",
    "city": {
      "name": "Sulbiate",
      "istat": "108042"
    },
    "latitude": 45.6393325,
    "longitude": 9.4300353
  },
  {
    "street": "Via Aldo Moro",
    "number": "3",
    "city": {
      "name": "Sulbiate",
      "istat": "108042"
    },
    "latitude": 45.6385426,
    "longitude": 9.4285581
  },
  {
    "street": "Via Aldo Moro",
    "number": "1",
    "city": {
      "name": "Sulbiate",
      "istat": "108042"
    },
    "latitude": 45.6388785,
    "longitude": 9.4283541
  },
  {
    "street": "Via Aldo Moro",
    "number": "2",
    "city": {
      "name": "Sulbiate",
      "istat": "108042"
    },
    "latitude": 45.6387414,
    "longitude": 9.4282198
  },
  {
    "street": "Via Aldo Moro",
    "number": "4",
    "city": {
      "name": "Sulbiate",
      "istat": "108042"
    },
    "latitude": 45.6386031,
    "longitude": 9.4282547
  },
  {
    "street": "Via Aldo Moro",
    "number": "6",
    "city": {
      "name": "Sulbiate",
      "istat": "108042"
    },
    "latitude": 45.6384357,
    "longitude": 9.4283055
  },
  {
    "street": "Via Aldo Moro",
    "number": "8",
    "city": {
      "name": "Sulbiate",
      "istat": "108042"
    },
    "latitude": 45.6382997,
    "longitude": 9.4283312
  },
  {
    "street": "Via Aldo Moro",
    "number": "10",
    "city": {
      "name": "Sulbiate",
      "istat": "108042"
    },
    "latitude": 45.6381698,
    "longitude": 9.4283714
  },
  {
    "street": "Via Aldo Moro",
    "number": "12",
    "city": {
      "name": "Sulbiate",
      "istat": "108042"
    },
    "latitude": 45.6380375,
    "longitude": 9.42841
  },
  {
    "street": "Via Aldo Moro",
    "number": "14",
    "city": {
      "name": "Sulbiate",
      "istat": "108042"
    },
    "latitude": 45.6379561,
    "longitude": 9.4284386
  },
  {
    "street": "Via Aldo Moro",
    "number": "16",
    "city": {
      "name": "Sulbiate",
      "istat": "108042"
    },
    "latitude": 45.6378224,
    "longitude": 9.4284706
  },
  {
    "street": "Via Aldo Moro",
    "number": "18",
    "city": {
      "name": "Sulbiate",
      "istat": "108042"
    },
    "latitude": 45.6369416,
    "longitude": 9.4290744
  },
  {
    "street": "Via Aldo Moro",
    "number": "11",
    "city": {
      "name": "Sulbiate",
      "istat": "108042"
    },
    "latitude": 45.6369436,
    "longitude": 9.4294039
  },
  {
    "street": "Via Aldo Moro",
    "number": "20",
    "city": {
      "name": "Sulbiate",
      "istat": "108042"
    },
    "latitude": 45.6367279,
    "longitude": 9.4291688
  },
  {
    "street": "Via Aldo Moro",
    "number": "22",
    "city": {
      "name": "Sulbiate",
      "istat": "108042"
    },
    "latitude": 45.6364367,
    "longitude": 9.42923
  },
  {
    "street": "Via Aldo Moro",
    "number": "19",
    "city": {
      "name": "Sulbiate",
      "istat": "108042"
    },
    "latitude": 45.6356619,
    "longitude": 9.4295818
  },
  {
    "street": "Via Aldo Moro",
    "number": "24",
    "city": {
      "name": "Sulbiate",
      "istat": "108042"
    },
    "latitude": 45.6355737,
    "longitude": 9.4293709
  },
  {
    "street": "Via Aldo Moro",
    "number": "21",
    "city": {
      "name": "Sulbiate",
      "istat": "108042"
    },
    "latitude": 45.635478,
    "longitude": 9.4295605
  },
  {
    "street": "Via Giuseppe Parini",
    "number": "5",
    "city": {
      "name": "Sulbiate",
      "istat": "108042"
    },
    "latitude": 45.6377623,
    "longitude": 9.4273599
  },
  {
    "street": "Via Giuseppe Parini",
    "number": "3",
    "city": {
      "name": "Sulbiate",
      "istat": "108042"
    },
    "latitude": 45.6379668,
    "longitude": 9.4271509
  },
  {
    "street": "Via Giuseppe Parini",
    "number": "1",
    "city": {
      "name": "Sulbiate",
      "istat": "108042"
    },
    "latitude": 45.638163,
    "longitude": 9.4269281
  },
  {
    "street": "Via San Francesco",
    "number": "6",
    "city": {
      "name": "Sulbiate",
      "istat": "108042"
    },
    "latitude": 45.6327444,
    "longitude": 9.422143
  },
  {
    "street": "Via Quattro Novembre",
    "number": "8e",
    "city": {
      "name": "Sulbiate",
      "istat": "108042"
    },
    "latitude": 45.632925,
    "longitude": 9.4220947
  },
  {
    "street": "Via Quattro Novembre",
    "number": "8d",
    "city": {
      "name": "Sulbiate",
      "istat": "108042"
    },
    "latitude": 45.6330164,
    "longitude": 9.4220913
  },
  {
    "street": "Via Quattro Novembre",
    "number": "8c",
    "city": {
      "name": "Sulbiate",
      "istat": "108042"
    },
    "latitude": 45.6331383,
    "longitude": 9.4221141
  },
  {
    "street": "Via San Francesco",
    "number": "9",
    "city": {
      "name": "Sulbiate",
      "istat": "108042"
    },
    "latitude": 45.6331402,
    "longitude": 9.4212146
  },
  {
    "street": "Via San Francesco",
    "number": "11",
    "city": {
      "name": "Sulbiate",
      "istat": "108042"
    },
    "latitude": 45.6329845,
    "longitude": 9.4212481
  },
  {
    "street": "Via San Francesco",
    "number": "13",
    "city": {
      "name": "Sulbiate",
      "istat": "108042"
    },
    "latitude": 45.6328448,
    "longitude": 9.4212602
  },
  {
    "street": "Via San Francesco",
    "number": "20",
    "city": {
      "name": "Sulbiate",
      "istat": "108042"
    },
    "latitude": 45.6325806,
    "longitude": 9.4212766
  },
  {
    "street": "Via San Francesco",
    "number": "18",
    "city": {
      "name": "Sulbiate",
      "istat": "108042"
    },
    "latitude": 45.6329036,
    "longitude": 9.4211475
  },
  {
    "street": "Via San Francesco",
    "number": "10",
    "city": {
      "name": "Sulbiate",
      "istat": "108042"
    },
    "latitude": 45.6333352,
    "longitude": 9.4210473
  },
  {
    "street": "Via San Francesco",
    "number": "12",
    "city": {
      "name": "Sulbiate",
      "istat": "108042"
    },
    "latitude": 45.6333019,
    "longitude": 9.421056
  },
  {
    "street": "Via San Francesco",
    "number": "14",
    "city": {
      "name": "Sulbiate",
      "istat": "108042"
    },
    "latitude": 45.6330956,
    "longitude": 9.4211002
  },
  {
    "street": "Via San Francesco",
    "number": "8a",
    "city": {
      "name": "Sulbiate",
      "istat": "108042"
    },
    "latitude": 45.6334949,
    "longitude": 9.4206828
  },
  {
    "street": "Via San Francesco",
    "number": "8",
    "city": {
      "name": "Sulbiate",
      "istat": "108042"
    },
    "latitude": 45.6335411,
    "longitude": 9.4206674
  },
  {
    "street": "Via San Francesco",
    "number": "4",
    "city": {
      "name": "Sulbiate",
      "istat": "108042"
    },
    "latitude": 45.6336649,
    "longitude": 9.4209289
  },
  {
    "street": "Via San Francesco",
    "number": "2",
    "city": {
      "name": "Sulbiate",
      "istat": "108042"
    },
    "latitude": 45.6337324,
    "longitude": 9.4208954
  },
  {
    "street": "Via Don Pietro Mandelli",
    "number": "11",
    "city": {
      "name": "Sulbiate",
      "istat": "108042"
    },
    "latitude": 45.6329883,
    "longitude": 9.4185162
  },
  {
    "street": "Via Ai Forni",
    "number": "9/2",
    "city": {
      "name": "Sulbiate",
      "istat": "108042"
    },
    "latitude": 45.6395368,
    "longitude": 9.4280901
  },
  {
    "street": "Via Ai Forni",
    "number": "9/1",
    "city": {
      "name": "Sulbiate",
      "istat": "108042"
    },
    "latitude": 45.6395133,
    "longitude": 9.4279801
  },
  {
    "street": "Via Ai Forni",
    "number": "11",
    "city": {
      "name": "Sulbiate",
      "istat": "108042"
    },
    "latitude": 45.639474,
    "longitude": 9.4279949
  },
  {
    "street": "Via Ai Forni",
    "number": "13a",
    "city": {
      "name": "Sulbiate",
      "istat": "108042"
    },
    "latitude": 45.6391824,
    "longitude": 9.4280559
  },
  {
    "street": "Via Ai Forni",
    "number": "9",
    "city": {
      "name": "Sulbiate",
      "istat": "108042"
    },
    "latitude": 45.6394983,
    "longitude": 9.4279097
  },
  {
    "street": "Via Ai Forni",
    "number": "7",
    "city": {
      "name": "Sulbiate",
      "istat": "108042"
    },
    "latitude": 45.6395682,
    "longitude": 9.4279003
  },
  {
    "street": "Via Ai Forni",
    "number": "5",
    "city": {
      "name": "Sulbiate",
      "istat": "108042"
    },
    "latitude": 45.6396737,
    "longitude": 9.427724
  },
  {
    "street": "Via Ai Forni",
    "number": "3",
    "city": {
      "name": "Sulbiate",
      "istat": "108042"
    },
    "latitude": 45.6396943,
    "longitude": 9.4277025
  },
  {
    "street": "Via Ai Forni",
    "number": "1",
    "city": {
      "name": "Sulbiate",
      "istat": "108042"
    },
    "latitude": 45.6397159,
    "longitude": 9.4276844
  },
  {
    "street": "Via Ai Forni",
    "number": "6",
    "city": {
      "name": "Sulbiate",
      "istat": "108042"
    },
    "latitude": 45.6395607,
    "longitude": 9.4278044
  },
  {
    "street": "Via Ai Forni",
    "number": "4",
    "city": {
      "name": "Sulbiate",
      "istat": "108042"
    },
    "latitude": 45.6395673,
    "longitude": 9.4277649
  },
  {
    "street": "Via Ai Forni",
    "number": "2",
    "city": {
      "name": "Sulbiate",
      "istat": "108042"
    },
    "latitude": 45.639631,
    "longitude": 9.4276763
  },
  {
    "street": "Via Don Pietro Mandelli",
    "number": "36",
    "city": {
      "name": "Sulbiate",
      "istat": "108042"
    },
    "latitude": 45.6317837,
    "longitude": 9.4180553
  },
  {
    "street": "Via Don Pietro Mandelli",
    "number": "34",
    "city": {
      "name": "Sulbiate",
      "istat": "108042"
    },
    "latitude": 45.6318667,
    "longitude": 9.4181175
  },
  {
    "street": "Via Don Pietro Mandelli",
    "number": "41",
    "city": {
      "name": "Sulbiate",
      "istat": "108042"
    },
    "latitude": 45.6318976,
    "longitude": 9.4182437
  },
  {
    "street": "Via Don Pietro Mandelli",
    "number": "39",
    "city": {
      "name": "Sulbiate",
      "istat": "108042"
    },
    "latitude": 45.6320241,
    "longitude": 9.4182651
  },
  {
    "street": "Via Don Pietro Mandelli",
    "number": "37",
    "city": {
      "name": "Sulbiate",
      "istat": "108042"
    },
    "latitude": 45.6321286,
    "longitude": 9.418291
  },
  {
    "street": "Via Don Pietro Mandelli",
    "number": "32",
    "city": {
      "name": "Sulbiate",
      "istat": "108042"
    },
    "latitude": 45.6321017,
    "longitude": 9.4181634
  },
  {
    "street": "Via Don Pietro Mandelli",
    "number": "33",
    "city": {
      "name": "Sulbiate",
      "istat": "108042"
    },
    "latitude": 45.6322516,
    "longitude": 9.418318
  },
  {
    "street": "Via Don Pietro Mandelli",
    "number": "31",
    "city": {
      "name": "Sulbiate",
      "istat": "108042"
    },
    "latitude": 45.6323415,
    "longitude": 9.4183472
  },
  {
    "street": "Via Don Pietro Mandelli",
    "number": "29",
    "city": {
      "name": "Sulbiate",
      "istat": "108042"
    },
    "latitude": 45.6323902,
    "longitude": 9.4183546
  },
  {
    "street": "Via Don Pietro Mandelli",
    "number": "23",
    "city": {
      "name": "Sulbiate",
      "istat": "108042"
    },
    "latitude": 45.6326534,
    "longitude": 9.4184354
  },
  {
    "street": "Via Don Pietro Mandelli",
    "number": "28",
    "city": {
      "name": "Sulbiate",
      "istat": "108042"
    },
    "latitude": 45.6326735,
    "longitude": 9.4182182
  },
  {
    "street": "Via Don Pietro Mandelli",
    "number": "17",
    "city": {
      "name": "Sulbiate",
      "istat": "108042"
    },
    "latitude": 45.6329143,
    "longitude": 9.4185059
  },
  {
    "street": "Via Don Pietro Mandelli",
    "number": "26",
    "city": {
      "name": "Sulbiate",
      "istat": "108042"
    },
    "latitude": 45.632963,
    "longitude": 9.4182841
  },
  {
    "street": "Via Don Pietro Mandelli",
    "number": "9",
    "city": {
      "name": "Sulbiate",
      "istat": "108042"
    },
    "latitude": 45.6330441,
    "longitude": 9.4185375
  },
  {
    "street": "Via Don Pietro Mandelli",
    "number": "24",
    "city": {
      "name": "Sulbiate",
      "istat": "108042"
    },
    "latitude": 45.6333939,
    "longitude": 9.4186953
  },
  {
    "street": "Via Don Pietro Mandelli",
    "number": "22",
    "city": {
      "name": "Sulbiate",
      "istat": "108042"
    },
    "latitude": 45.6334634,
    "longitude": 9.4188642
  },
  {
    "street": "Via Don Pietro Mandelli",
    "number": "20",
    "city": {
      "name": "Sulbiate",
      "istat": "108042"
    },
    "latitude": 45.6335237,
    "longitude": 9.4189988
  },
  {
    "street": "Via Don Pietro Mandelli",
    "number": "18",
    "city": {
      "name": "Sulbiate",
      "istat": "108042"
    },
    "latitude": 45.6337924,
    "longitude": 9.4196708
  },
  {
    "street": "Via Don Pietro Mandelli",
    "number": "1",
    "city": {
      "name": "Sulbiate",
      "istat": "108042"
    },
    "latitude": 45.6337097,
    "longitude": 9.4198843
  },
  {
    "street": "Via Angelo Mattavelli",
    "number": "7",
    "city": {
      "name": "Sulbiate",
      "istat": "108042"
    },
    "latitude": 45.6362417,
    "longitude": 9.4289763
  },
  {
    "street": "Via Angelo Mattavelli",
    "number": "24",
    "city": {
      "name": "Sulbiate",
      "istat": "108042"
    },
    "latitude": 45.6361226,
    "longitude": 9.4292323
  },
  {
    "street": "Via Angelo Mattavelli",
    "number": "22",
    "city": {
      "name": "Sulbiate",
      "istat": "108042"
    },
    "latitude": 45.6360902,
    "longitude": 9.4289815
  },
  {
    "street": "Via Angelo Mattavelli",
    "number": "20",
    "city": {
      "name": "Sulbiate",
      "istat": "108042"
    },
    "latitude": 45.6360747,
    "longitude": 9.4288566
  },
  {
    "street": "Via Angelo Mattavelli",
    "number": "18",
    "city": {
      "name": "Sulbiate",
      "istat": "108042"
    },
    "latitude": 45.6360439,
    "longitude": 9.4286149
  },
  {
    "street": "Via Angelo Mattavelli",
    "number": "16",
    "city": {
      "name": "Sulbiate",
      "istat": "108042"
    },
    "latitude": 45.6360326,
    "longitude": 9.4284975
  },
  {
    "street": "Via Angelo Mattavelli",
    "number": "14",
    "city": {
      "name": "Sulbiate",
      "istat": "108042"
    },
    "latitude": 45.6360055,
    "longitude": 9.4282624
  },
  {
    "street": "Via Angelo Mattavelli",
    "number": "12,",
    "city": {
      "name": "Sulbiate",
      "istat": "108042"
    },
    "latitude": 45.6364276,
    "longitude": 9.4280902
  },
  {
    "street": "Via Angelo Mattavelli",
    "number": "5",
    "city": {
      "name": "Sulbiate",
      "istat": "108042"
    },
    "latitude": 45.6364792,
    "longitude": 9.4283523
  },
  {
    "street": "Via Angelo Mattavelli",
    "number": "3B",
    "city": {
      "name": "Sulbiate",
      "istat": "108042"
    },
    "latitude": 45.6368921,
    "longitude": 9.4286532
  },
  {
    "street": "Via Angelo Mattavelli",
    "number": "3A",
    "city": {
      "name": "Sulbiate",
      "istat": "108042"
    },
    "latitude": 45.6368411,
    "longitude": 9.4284479
  },
  {
    "street": "Via Angelo Mattavelli",
    "number": "10",
    "city": {
      "name": "Sulbiate",
      "istat": "108042"
    },
    "latitude": 45.6368385,
    "longitude": 9.4279814
  },
  {
    "street": "Via Angelo Mattavelli",
    "number": "1",
    "city": {
      "name": "Sulbiate",
      "istat": "108042"
    },
    "latitude": 45.6369966,
    "longitude": 9.4281914
  },
  {
    "street": "Via Angelo Mattavelli",
    "number": "8A",
    "city": {
      "name": "Sulbiate",
      "istat": "108042"
    },
    "latitude": 45.63699,
    "longitude": 9.4274525
  },
  {
    "street": "Via Angelo Mattavelli",
    "number": "8",
    "city": {
      "name": "Sulbiate",
      "istat": "108042"
    },
    "latitude": 45.6369847,
    "longitude": 9.4271241
  },
  {
    "street": "Via Angelo Mattavelli",
    "number": "6",
    "city": {
      "name": "Sulbiate",
      "istat": "108042"
    },
    "latitude": 45.636992,
    "longitude": 9.4261817
  },
  {
    "street": "Via Angelo Mattavelli",
    "number": "4A",
    "city": {
      "name": "Sulbiate",
      "istat": "108042"
    },
    "latitude": 45.6369873,
    "longitude": 9.4260284
  },
  {
    "street": "Via Angelo Mattavelli",
    "number": "4",
    "city": {
      "name": "Sulbiate",
      "istat": "108042"
    },
    "latitude": 45.63699,
    "longitude": 9.4257294
  },
  {
    "street": "Via Angelo Mattavelli",
    "number": "2",
    "city": {
      "name": "Sulbiate",
      "istat": "108042"
    },
    "latitude": 45.6368907,
    "longitude": 9.4255099
  },
  {
    "street": "Via Valfredda",
    "number": "5",
    "city": {
      "name": "Sulbiate",
      "istat": "108042"
    },
    "latitude": 45.6400185,
    "longitude": 9.4269596
  },
  {
    "street": "Via Valfredda",
    "number": "3",
    "city": {
      "name": "Sulbiate",
      "istat": "108042"
    },
    "latitude": 45.6400488,
    "longitude": 9.4270793
  },
  {
    "street": "Via Valfredda",
    "number": "2A",
    "city": {
      "name": "Sulbiate",
      "istat": "108042"
    },
    "latitude": 45.6401318,
    "longitude": 9.4270582
  },
  {
    "street": "Via Valfredda",
    "number": "1",
    "city": {
      "name": "Sulbiate",
      "istat": "108042"
    },
    "latitude": 45.6400793,
    "longitude": 9.4272339
  },
  {
    "street": "Via Valfredda",
    "number": "2",
    "city": {
      "name": "Sulbiate",
      "istat": "108042"
    },
    "latitude": 45.6401499,
    "longitude": 9.4271395
  },
  {
    "street": "Via Resegone",
    "number": "1",
    "city": {
      "name": "Sulbiate",
      "istat": "108042"
    },
    "latitude": 45.6401983,
    "longitude": 9.4265758
  },
  {
    "street": "Via Resegone",
    "number": "3",
    "city": {
      "name": "Sulbiate",
      "istat": "108042"
    },
    "latitude": 45.6405222,
    "longitude": 9.4266431
  },
  {
    "street": "Via Resegone",
    "number": "6",
    "city": {
      "name": "Sulbiate",
      "istat": "108042"
    },
    "latitude": 45.6406984,
    "longitude": 9.4267382
  },
  {
    "street": "Via Resegone",
    "number": "8",
    "city": {
      "name": "Sulbiate",
      "istat": "108042"
    },
    "latitude": 45.6408877,
    "longitude": 9.4267442
  },
  {
    "street": "Via Resegone",
    "number": "10",
    "city": {
      "name": "Sulbiate",
      "istat": "108042"
    },
    "latitude": 45.6410551,
    "longitude": 9.4269842
  },
  {
    "street": "Via Biffi",
    "number": "3",
    "city": {
      "name": "Sulbiate",
      "istat": "108042"
    },
    "latitude": 45.6408549,
    "longitude": 9.427513
  },
  {
    "street": "Via Biffi",
    "number": "2",
    "city": {
      "name": "Sulbiate",
      "istat": "108042"
    },
    "latitude": 45.6408852,
    "longitude": 9.4276352
  },
  {
    "street": "Piazza Beretta",
    "number": "11",
    "city": {
      "name": "Sulbiate",
      "istat": "108042"
    },
    "latitude": 45.6404637,
    "longitude": 9.4272592
  },
  {
    "street": "Piazza Beretta",
    "number": "12",
    "city": {
      "name": "Sulbiate",
      "istat": "108042"
    },
    "latitude": 45.6404776,
    "longitude": 9.4273518
  },
  {
    "street": "Piazza Beretta",
    "number": "13",
    "city": {
      "name": "Sulbiate",
      "istat": "108042"
    },
    "latitude": 45.640486,
    "longitude": 9.4273879
  },
  {
    "street": "Piazza Beretta",
    "number": "15",
    "city": {
      "name": "Sulbiate",
      "istat": "108042"
    },
    "latitude": 45.6405219,
    "longitude": 9.4275292
  },
  {
    "street": "Piazza Beretta",
    "number": "9",
    "city": {
      "name": "Sulbiate",
      "istat": "108042"
    },
    "latitude": 45.6405469,
    "longitude": 9.4271224
  },
  {
    "street": "Piazza Beretta",
    "number": "10",
    "city": {
      "name": "Sulbiate",
      "istat": "108042"
    },
    "latitude": 45.6404262,
    "longitude": 9.4271558
  },
  {
    "street": "Piazza Beretta",
    "number": "8",
    "city": {
      "name": "Sulbiate",
      "istat": "108042"
    },
    "latitude": 45.6404834,
    "longitude": 9.4269156
  },
  {
    "street": "Via Resegone",
    "number": "11",
    "city": {
      "name": "Sulbiate",
      "istat": "108042"
    },
    "latitude": 45.6409651,
    "longitude": 9.4252486
  },
  {
    "street": "Via Resegone",
    "number": "19",
    "city": {
      "name": "Sulbiate",
      "istat": "108042"
    },
    "latitude": 45.6408149,
    "longitude": 9.4255831
  },
  {
    "street": "Via Dante Alighieri",
    "number": "15",
    "city": {
      "name": "Sulbiate",
      "istat": "108042"
    },
    "latitude": 45.6396435,
    "longitude": 9.4274213
  },
  {
    "street": "Via Dante Alighieri",
    "number": "9",
    "city": {
      "name": "Sulbiate",
      "istat": "108042"
    },
    "latitude": 45.6398407,
    "longitude": 9.4275699
  },
  {
    "street": "Via Dante Alighieri",
    "number": "5",
    "city": {
      "name": "Sulbiate",
      "istat": "108042"
    },
    "latitude": 45.6400864,
    "longitude": 9.427485
  },
  {
    "street": "Via Dante Alighieri",
    "number": "1",
    "city": {
      "name": "Sulbiate",
      "istat": "108042"
    },
    "latitude": 45.6402987,
    "longitude": 9.4274294
  },
  {
    "street": "Via Brianza",
    "number": "3",
    "city": {
      "name": "Sulbiate",
      "istat": "108042"
    },
    "latitude": 45.6396733,
    "longitude": 9.4261827
  },
  {
    "street": "Via Brianza",
    "number": "1",
    "city": {
      "name": "Sulbiate",
      "istat": "108042"
    },
    "latitude": 45.6394339,
    "longitude": 9.4263313
  },
  {
    "street": "Via Biffi",
    "number": "11",
    "city": {
      "name": "Sulbiate",
      "istat": "108042"
    },
    "latitude": 45.6416451,
    "longitude": 9.4270966
  },
  {
    "street": "Via Biffi",
    "number": "13",
    "city": {
      "name": "Sulbiate",
      "istat": "108042"
    },
    "latitude": 45.6418636,
    "longitude": 9.427649
  },
  {
    "street": "Via Biffi",
    "number": "15",
    "city": {
      "name": "Sulbiate",
      "istat": "108042"
    },
    "latitude": 45.6419226,
    "longitude": 9.4275661
  },
  {
    "street": "Via Biffi",
    "number": "4",
    "city": {
      "name": "Sulbiate",
      "istat": "108042"
    },
    "latitude": 45.6424562,
    "longitude": 9.4280443
  },
  {
    "street": "Via Biffi",
    "number": "1",
    "city": {
      "name": "Sulbiate",
      "istat": "108042"
    },
    "latitude": 45.640651,
    "longitude": 9.4276107
  },
  {
    "street": "Via Giuseppe Verdi",
    "number": "15",
    "city": {
      "name": "Sulbiate",
      "istat": "108042"
    },
    "latitude": 45.6381682,
    "longitude": 9.4242683
  },
  {
    "street": "Via Giuseppe Verdi",
    "number": "13",
    "city": {
      "name": "Sulbiate",
      "istat": "108042"
    },
    "latitude": 45.6381837,
    "longitude": 9.4243221
  },
  {
    "street": "Via Giuseppe Verdi",
    "number": "7",
    "city": {
      "name": "Sulbiate",
      "istat": "108042"
    },
    "latitude": 45.6383024,
    "longitude": 9.4247529
  },
  {
    "street": "Via Giuseppe Verdi",
    "number": "5",
    "city": {
      "name": "Sulbiate",
      "istat": "108042"
    },
    "latitude": 45.6382803,
    "longitude": 9.4248653
  },
  {
    "street": "Via Giuseppe Verdi",
    "number": "10",
    "city": {
      "name": "Sulbiate",
      "istat": "108042"
    },
    "latitude": 45.6382967,
    "longitude": 9.4243408
  },
  {
    "street": "Via Giuseppe Verdi",
    "number": "12",
    "city": {
      "name": "Sulbiate",
      "istat": "108042"
    },
    "latitude": 45.6382606,
    "longitude": 9.4241535
  },
  {
    "street": "Via Giuseppe Verdi",
    "number": "6",
    "city": {
      "name": "Sulbiate",
      "istat": "108042"
    },
    "latitude": 45.6383957,
    "longitude": 9.42474
  },
  {
    "street": "Via Giuseppe Verdi",
    "number": "4",
    "city": {
      "name": "Sulbiate",
      "istat": "108042"
    },
    "latitude": 45.6385013,
    "longitude": 9.4250128
  },
  {
    "street": "Via Giuseppe Verdi",
    "number": "2G",
    "city": {
      "name": "Sulbiate",
      "istat": "108042"
    },
    "latitude": 45.6392072,
    "longitude": 9.4249092
  },
  {
    "street": "Via Giuseppe Verdi",
    "number": "2F",
    "city": {
      "name": "Sulbiate",
      "istat": "108042"
    },
    "latitude": 45.6391487,
    "longitude": 9.424949
  },
  {
    "street": "Via Giuseppe Verdi",
    "number": "2E",
    "city": {
      "name": "Sulbiate",
      "istat": "108042"
    },
    "latitude": 45.6390816,
    "longitude": 9.4249841
  },
  {
    "street": "Via Giuseppe Verdi",
    "number": "2D",
    "city": {
      "name": "Sulbiate",
      "istat": "108042"
    },
    "latitude": 45.6389989,
    "longitude": 9.4250274
  },
  {
    "street": "Via Giuseppe Verdi",
    "number": "2C",
    "city": {
      "name": "Sulbiate",
      "istat": "108042"
    },
    "latitude": 45.6389383,
    "longitude": 9.425066
  },
  {
    "street": "Via Giuseppe Verdi",
    "number": "2B",
    "city": {
      "name": "Sulbiate",
      "istat": "108042"
    },
    "latitude": 45.6388549,
    "longitude": 9.4251064
  },
  {
    "street": "Via Giuseppe Verdi",
    "number": "2A",
    "city": {
      "name": "Sulbiate",
      "istat": "108042"
    },
    "latitude": 45.6387959,
    "longitude": 9.4251386
  },
  {
    "street": "Via Giuseppe Verdi",
    "number": "2",
    "city": {
      "name": "Sulbiate",
      "istat": "108042"
    },
    "latitude": 45.6387165,
    "longitude": 9.4251848
  },
  {
    "street": "Via Resegone",
    "number": "9",
    "city": {
      "name": "Sulbiate",
      "istat": "108042"
    },
    "latitude": 45.6407817,
    "longitude": 9.4265911
  },
  {
    "street": "Via Resegone",
    "number": "9/6",
    "city": {
      "name": "Sulbiate",
      "istat": "108042"
    },
    "latitude": 45.6410306,
    "longitude": 9.4264233
  },
  {
    "street": "Via Resegone",
    "number": "9/5",
    "city": {
      "name": "Sulbiate",
      "istat": "108042"
    },
    "latitude": 45.6410339,
    "longitude": 9.4263019
  },
  {
    "street": "Via Resegone",
    "number": "9/4",
    "city": {
      "name": "Sulbiate",
      "istat": "108042"
    },
    "latitude": 45.6410365,
    "longitude": 9.4262296
  },
  {
    "street": "Via Resegone",
    "number": "9/3",
    "city": {
      "name": "Sulbiate",
      "istat": "108042"
    },
    "latitude": 45.6410384,
    "longitude": 9.4261888
  },
  {
    "street": "Via Resegone",
    "number": "9/2",
    "city": {
      "name": "Sulbiate",
      "istat": "108042"
    },
    "latitude": 45.6410378,
    "longitude": 9.4261118
  },
  {
    "street": "Via Resegone",
    "number": "9/1",
    "city": {
      "name": "Sulbiate",
      "istat": "108042"
    },
    "latitude": 45.6410384,
    "longitude": 9.4259858
  },
  {
    "street": "Via Resegone",
    "number": "7",
    "city": {
      "name": "Sulbiate",
      "istat": "108042"
    },
    "latitude": 45.64068,
    "longitude": 9.4259867
  },
  {
    "street": "Via Resegone",
    "number": "5",
    "city": {
      "name": "Sulbiate",
      "istat": "108042"
    },
    "latitude": 45.6406456,
    "longitude": 9.426072
  },
  {
    "street": "Via Resegone",
    "number": "4",
    "city": {
      "name": "Sulbiate",
      "istat": "108042"
    },
    "latitude": 45.6402872,
    "longitude": 9.4267599
  },
  {
    "street": "Via Enrico Fermi",
    "number": "13",
    "city": {
      "name": "Sulbiate",
      "istat": "108042"
    },
    "latitude": 45.6309567,
    "longitude": 9.4164834
  },
  {
    "street": "Via Quattro Novembre",
    "number": "14",
    "city": {
      "name": "Sulbiate",
      "istat": "108042"
    },
    "latitude": 45.6330316,
    "longitude": 9.4226684
  },
  {
    "street": "Via Quattro Novembre",
    "number": "12A",
    "city": {
      "name": "Sulbiate",
      "istat": "108042"
    },
    "latitude": 45.6336051,
    "longitude": 9.4225542
  },
  {
    "street": "Piazza Beretta",
    "number": "18",
    "city": {
      "name": "Sulbiate",
      "istat": "108042"
    },
    "latitude": 45.6405507,
    "longitude": 9.428316
  },
  {
    "street": "Piazza Beretta",
    "number": "16",
    "city": {
      "name": "Sulbiate",
      "istat": "108042"
    },
    "latitude": 45.6405361,
    "longitude": 9.4276223
  },
  {
    "street": "Piazza Beretta",
    "number": "17",
    "city": {
      "name": "Sulbiate",
      "istat": "108042"
    },
    "latitude": 45.640579,
    "longitude": 9.427902
  },
  {
    "street": "Piazza Beretta",
    "number": "7",
    "city": {
      "name": "Sulbiate",
      "istat": "108042"
    },
    "latitude": 45.6402179,
    "longitude": 9.4269834
  },
  {
    "street": "Piazza Beretta",
    "number": "6",
    "city": {
      "name": "Sulbiate",
      "istat": "108042"
    },
    "latitude": 45.6403431,
    "longitude": 9.427521
  },
  {
    "street": "Piazza Beretta",
    "number": "5",
    "city": {
      "name": "Sulbiate",
      "istat": "108042"
    },
    "latitude": 45.6403544,
    "longitude": 9.4275848
  },
  {
    "street": "Piazza Beretta",
    "number": "4",
    "city": {
      "name": "Sulbiate",
      "istat": "108042"
    },
    "latitude": 45.6403843,
    "longitude": 9.427726
  },
  {
    "street": "Piazza Beretta",
    "number": "3",
    "city": {
      "name": "Sulbiate",
      "istat": "108042"
    },
    "latitude": 45.6403967,
    "longitude": 9.4278213
  },
  {
    "street": "Piazza Beretta",
    "number": "2",
    "city": {
      "name": "Sulbiate",
      "istat": "108042"
    },
    "latitude": 45.6404052,
    "longitude": 9.4278955
  },
  {
    "street": "Piazza Beretta",
    "number": "1",
    "city": {
      "name": "Sulbiate",
      "istat": "108042"
    },
    "latitude": 45.6404339,
    "longitude": 9.4281352
  },
  {
    "street": "Via ai Quadri",
    "number": "10",
    "city": {
      "name": "Sulbiate",
      "istat": "108042"
    },
    "latitude": 45.6318983,
    "longitude": 9.409498
  },
  {
    "street": "Via ai Quadri",
    "number": "12",
    "city": {
      "name": "Sulbiate",
      "istat": "108042"
    },
    "latitude": 45.6318969,
    "longitude": 9.4094296
  },
  {
    "street": "Via ai Quadri",
    "number": "14",
    "city": {
      "name": "Sulbiate",
      "istat": "108042"
    },
    "latitude": 45.6318868,
    "longitude": 9.4094098
  },
  {
    "street": "Via ai Quadri",
    "number": "9",
    "city": {
      "name": "Sulbiate",
      "istat": "108042"
    },
    "latitude": 45.631651,
    "longitude": 9.4097304
  },
  {
    "street": "Via ai Quadri",
    "number": "7",
    "city": {
      "name": "Sulbiate",
      "istat": "108042"
    },
    "latitude": 45.6317738,
    "longitude": 9.4097981
  },
  {
    "street": "Via ai Quadri",
    "number": "5",
    "city": {
      "name": "Sulbiate",
      "istat": "108042"
    },
    "latitude": 45.6318929,
    "longitude": 9.4098517
  },
  {
    "street": "Via ai Quadri",
    "number": "3",
    "city": {
      "name": "Sulbiate",
      "istat": "108042"
    },
    "latitude": 45.6320404,
    "longitude": 9.4099486
  },
  {
    "street": "Via ai Quadri",
    "number": "1",
    "city": {
      "name": "Sulbiate",
      "istat": "108042"
    },
    "latitude": 45.6321693,
    "longitude": 9.41002
  },
  {
    "street": "Via ai Quadri",
    "number": "2",
    "city": {
      "name": "Sulbiate",
      "istat": "108042"
    },
    "latitude": 45.632261,
    "longitude": 9.4099349
  },
  {
    "street": "Via della Cappelletta",
    "number": "10",
    "city": {
      "name": "Sulbiate",
      "istat": "108042"
    },
    "latitude": 45.6330398,
    "longitude": 9.4106188
  },
  {
    "street": "Via della Cappelletta",
    "number": "7",
    "city": {
      "name": "Sulbiate",
      "istat": "108042"
    },
    "latitude": 45.6327562,
    "longitude": 9.4101273
  },
  {
    "street": "Via della Cappelletta",
    "number": "21",
    "city": {
      "name": "Sulbiate",
      "istat": "108042"
    },
    "latitude": 45.633486,
    "longitude": 9.4091228
  },
  {
    "street": "Via della Cappelletta",
    "number": "19",
    "city": {
      "name": "Sulbiate",
      "istat": "108042"
    },
    "latitude": 45.633309,
    "longitude": 9.4094558
  },
  {
    "street": "Via della Cappelletta",
    "number": "17",
    "city": {
      "name": "Sulbiate",
      "istat": "108042"
    },
    "latitude": 45.6332028,
    "longitude": 9.4096831
  },
  {
    "street": "Via della Cappelletta",
    "number": "15",
    "city": {
      "name": "Sulbiate",
      "istat": "108042"
    },
    "latitude": 45.6331767,
    "longitude": 9.4097813
  },
  {
    "street": "Via della Cappelletta",
    "number": "13",
    "city": {
      "name": "Sulbiate",
      "istat": "108042"
    },
    "latitude": 45.6330591,
    "longitude": 9.4100039
  },
  {
    "street": "Via della Cappelletta",
    "number": "11",
    "city": {
      "name": "Sulbiate",
      "istat": "108042"
    },
    "latitude": 45.6330506,
    "longitude": 9.410064
  },
  {
    "street": "Via della Cappelletta",
    "number": "18",
    "city": {
      "name": "Sulbiate",
      "istat": "108042"
    },
    "latitude": 45.6334759,
    "longitude": 9.4094709
  },
  {
    "street": "Via della Cappelletta",
    "number": "16",
    "city": {
      "name": "Sulbiate",
      "istat": "108042"
    },
    "latitude": 45.6333427,
    "longitude": 9.4097163
  },
  {
    "street": "Via della Cappelletta",
    "number": "14",
    "city": {
      "name": "Sulbiate",
      "istat": "108042"
    },
    "latitude": 45.6333043,
    "longitude": 9.4097793
  },
  {
    "street": "Via della Cappelletta",
    "number": "20",
    "city": {
      "name": "Sulbiate",
      "istat": "108042"
    },
    "latitude": 45.6335368,
    "longitude": 9.4092603
  },
  {
    "street": "Via della Cappelletta",
    "number": "24",
    "city": {
      "name": "Sulbiate",
      "istat": "108042"
    },
    "latitude": 45.6336377,
    "longitude": 9.4090712
  },
  {
    "street": "Via della Cappelletta",
    "number": "28",
    "city": {
      "name": "Sulbiate",
      "istat": "108042"
    },
    "latitude": 45.6338008,
    "longitude": 9.4087701
  },
  {
    "street": "Via della Cappelletta",
    "number": "30",
    "city": {
      "name": "Sulbiate",
      "istat": "108042"
    },
    "latitude": 45.6338243,
    "longitude": 9.4087272
  },
  {
    "street": "Via della Cappelletta",
    "number": "38",
    "city": {
      "name": "Sulbiate",
      "istat": "108042"
    },
    "latitude": 45.6339663,
    "longitude": 9.408467
  },
  {
    "street": "Via della Cappelletta",
    "number": "33",
    "city": {
      "name": "Sulbiate",
      "istat": "108042"
    },
    "latitude": 45.6338805,
    "longitude": 9.4080808
  },
  {
    "street": "Via Cascina C",
    "number": "15",
    "city": {
      "name": "Sulbiate",
      "istat": "108042"
    },
    "latitude": 45.6323826,
    "longitude": 9.4097335
  },
  {
    "street": "Via Cascina C",
    "number": "17",
    "city": {
      "name": "Sulbiate",
      "istat": "108042"
    },
    "latitude": 45.6323947,
    "longitude": 9.40961
  },
  {
    "street": "Via Cascina C",
    "number": "19",
    "city": {
      "name": "Sulbiate",
      "istat": "108042"
    },
    "latitude": 45.6324044,
    "longitude": 9.409507
  },
  {
    "street": "Via Cascina C",
    "number": "23",
    "city": {
      "name": "Sulbiate",
      "istat": "108042"
    },
    "latitude": 45.6324237,
    "longitude": 9.4089194
  },
  {
    "street": "Via Cascina C",
    "number": "36",
    "city": {
      "name": "Sulbiate",
      "istat": "108042"
    },
    "latitude": 45.6325874,
    "longitude": 9.4088828
  },
  {
    "street": "Via Cascina C",
    "number": "22",
    "city": {
      "name": "Sulbiate",
      "istat": "108042"
    },
    "latitude": 45.6324459,
    "longitude": 9.4097437
  },
  {
    "street": "Via Cascina C",
    "number": "20A",
    "city": {
      "name": "Sulbiate",
      "istat": "108042"
    },
    "latitude": 45.6324434,
    "longitude": 9.4098208
  },
  {
    "street": "Via Cascina C",
    "number": "20",
    "city": {
      "name": "Sulbiate",
      "istat": "108042"
    },
    "latitude": 45.6324427,
    "longitude": 9.4099047
  },
  {
    "street": "Via Cascina C",
    "number": "18",
    "city": {
      "name": "Sulbiate",
      "istat": "108042"
    },
    "latitude": 45.6324421,
    "longitude": 9.4099541
  },
  {
    "street": "Via Cascina C",
    "number": "16",
    "city": {
      "name": "Sulbiate",
      "istat": "108042"
    },
    "latitude": 45.6324374,
    "longitude": 9.4100099
  },
  {
    "street": "Via Cascina C",
    "number": "13",
    "city": {
      "name": "Sulbiate",
      "istat": "108042"
    },
    "latitude": 45.6323561,
    "longitude": 9.409947
  },
  {
    "street": "Via Cascina C",
    "number": "14",
    "city": {
      "name": "Sulbiate",
      "istat": "108042"
    },
    "latitude": 45.632468,
    "longitude": 9.4101303
  },
  {
    "street": "Via Cascina C",
    "number": "9",
    "city": {
      "name": "Sulbiate",
      "istat": "108042"
    },
    "latitude": 45.6322834,
    "longitude": 9.4102582
  },
  {
    "street": "Via Cascina C",
    "number": "7",
    "city": {
      "name": "Sulbiate",
      "istat": "108042"
    },
    "latitude": 45.6321587,
    "longitude": 9.4105975
  },
  {
    "street": "Via Cascina C",
    "number": "5",
    "city": {
      "name": "Sulbiate",
      "istat": "108042"
    },
    "latitude": 45.6321089,
    "longitude": 9.4106621
  },
  {
    "street": "Via Cascina C",
    "number": "10",
    "city": {
      "name": "Sulbiate",
      "istat": "108042"
    },
    "latitude": 45.6323025,
    "longitude": 9.4108709
  },
  {
    "street": "Via Cascina C",
    "number": "8",
    "city": {
      "name": "Sulbiate",
      "istat": "108042"
    },
    "latitude": 45.6322385,
    "longitude": 9.4109301
  },
  {
    "street": "Via Cascina C",
    "number": "6",
    "city": {
      "name": "Sulbiate",
      "istat": "108042"
    },
    "latitude": 45.6321955,
    "longitude": 9.4111423
  },
  {
    "street": "Via Cascina C",
    "number": "3",
    "city": {
      "name": "Sulbiate",
      "istat": "108042"
    },
    "latitude": 45.6320266,
    "longitude": 9.4109863
  },
  {
    "street": "Via ai Quadri",
    "number": "6",
    "city": {
      "name": "Sulbiate",
      "istat": "108042"
    },
    "latitude": 45.6320301,
    "longitude": 9.4093829
  },
  {
    "street": "Via Quattro Novembre",
    "number": "20",
    "city": {
      "name": "Sulbiate",
      "istat": "108042"
    },
    "latitude": 45.6346637,
    "longitude": 9.4276823
  }
]