[
  {
    "street": "Via Leonardo da Vinci",
    "number": "72",
    "city": {
      "name": "Villasanta",
      "istat": "108049"
    },
    "latitude": 45.614827,
    "longitude": 9.3108989
  },
  {
    "street": "Piazza Martiri della Libert√†",
    "number": "12",
    "city": {
      "name": "Villasanta",
      "istat": "108049"
    },
    "latitude": 45.6056376,
    "longitude": 9.3029253
  },
  {
    "street": "Via Enrico Mattei",
    "number": "2",
    "city": {
      "name": "Villasanta",
      "istat": "108049"
    },
    "latitude": 45.5983134,
    "longitude": 9.3085028
  },
  {
    "street": "Piazza Andrea Oggioni",
    "number": "6",
    "city": {
      "name": "Villasanta",
      "istat": "108049"
    },
    "latitude": 45.6025269,
    "longitude": 9.2995015
  },
  {
    "street": "Via Giuseppe Mazzini",
    "number": "39",
    "city": {
      "name": "Villasanta",
      "istat": "108049"
    },
    "latitude": 45.6071875,
    "longitude": 9.3023101
  },
  {
    "street": "Via Francesco Baracca",
    "number": "34",
    "city": {
      "name": "Villasanta",
      "istat": "108049"
    },
    "latitude": 45.6157425,
    "longitude": 9.3001074
  },
  {
    "street": "Via Giuseppe Garibaldi",
    "number": "59",
    "city": {
      "name": "Villasanta",
      "istat": "108049"
    },
    "latitude": 45.6050226,
    "longitude": 9.3060818
  },
  {
    "street": "Via Raffaello Sanzio",
    "number": "9",
    "city": {
      "name": "Villasanta",
      "istat": "108049"
    },
    "latitude": 45.6014332,
    "longitude": 9.3057332
  },
  {
    "street": "Via Leonardo da Vinci",
    "number": "31",
    "city": {
      "name": "Villasanta",
      "istat": "108049"
    },
    "latitude": 45.6154575,
    "longitude": 9.3107006
  },
  {
    "street": "Via Benvenuto Cellini",
    "number": "11a",
    "city": {
      "name": "Villasanta",
      "istat": "108049"
    },
    "latitude": 45.6039656,
    "longitude": 9.305635
  },
  {
    "street": "Via Benvenuto Cellini",
    "number": "13",
    "city": {
      "name": "Villasanta",
      "istat": "108049"
    },
    "latitude": 45.6036003,
    "longitude": 9.3053654
  },
  {
    "street": "Via Thomas Alva Edison",
    "number": "6",
    "city": {
      "name": "Villasanta",
      "istat": "108049"
    },
    "latitude": 45.6045496,
    "longitude": 9.305231
  },
  {
    "street": "Via Benvenuto Cellini",
    "number": "9",
    "city": {
      "name": "Villasanta",
      "istat": "108049"
    },
    "latitude": 45.6040847,
    "longitude": 9.3057059
  },
  {
    "street": "Via Benvenuto Cellini",
    "number": "1",
    "city": {
      "name": "Villasanta",
      "istat": "108049"
    },
    "latitude": 45.6047028,
    "longitude": 9.3062362
  },
  {
    "street": "Via Benvenuto Cellini",
    "number": "11",
    "city": {
      "name": "Villasanta",
      "istat": "108049"
    },
    "latitude": 45.6038941,
    "longitude": 9.3055839
  },
  {
    "street": "Via Benvenuto Cellini",
    "number": "3",
    "city": {
      "name": "Villasanta",
      "istat": "108049"
    },
    "latitude": 45.6044937,
    "longitude": 9.3060635
  },
  {
    "street": "Via Giuseppe Garibaldi",
    "number": "46",
    "city": {
      "name": "Villasanta",
      "istat": "108049"
    },
    "latitude": 45.6049679,
    "longitude": 9.305821
  },
  {
    "street": "Via Benvenuto Cellini",
    "number": "5",
    "city": {
      "name": "Villasanta",
      "istat": "108049"
    },
    "latitude": 45.6043547,
    "longitude": 9.3059273
  },
  {
    "street": "Via Giuseppe Garibaldi",
    "number": "57",
    "city": {
      "name": "Villasanta",
      "istat": "108049"
    },
    "latitude": 45.6050409,
    "longitude": 9.3060196
  },
  {
    "street": "Via Giuseppe Garibaldi",
    "number": "49",
    "city": {
      "name": "Villasanta",
      "istat": "108049"
    },
    "latitude": 45.6050885,
    "longitude": 9.3057503
  },
  {
    "street": "Via Giuseppe Garibaldi",
    "number": "53",
    "city": {
      "name": "Villasanta",
      "istat": "108049"
    },
    "latitude": 45.6050647,
    "longitude": 9.3058709
  },
  {
    "street": "Via Giuseppe Garibaldi",
    "number": "44",
    "city": {
      "name": "Villasanta",
      "istat": "108049"
    },
    "latitude": 45.6050321,
    "longitude": 9.3054636
  },
  {
    "street": "Via Giuseppe Garibaldi",
    "number": "51",
    "city": {
      "name": "Villasanta",
      "istat": "108049"
    },
    "latitude": 45.6050756,
    "longitude": 9.305817
  },
  {
    "street": "Via Giuseppe Garibaldi",
    "number": "55",
    "city": {
      "name": "Villasanta",
      "istat": "108049"
    },
    "latitude": 45.6050557,
    "longitude": 9.3059177
  },
  {
    "street": "Via Fratelli Camperio",
    "number": "29",
    "city": {
      "name": "Villasanta",
      "istat": "108049"
    },
    "latitude": 45.6044323,
    "longitude": 9.3048252
  },
  {
    "street": "Via Fratelli Camperio",
    "number": "25",
    "city": {
      "name": "Villasanta",
      "istat": "108049"
    },
    "latitude": 45.6044603,
    "longitude": 9.3047269
  },
  {
    "street": "Via Fratelli Camperio",
    "number": "21",
    "city": {
      "name": "Villasanta",
      "istat": "108049"
    },
    "latitude": 45.6044814,
    "longitude": 9.3045845
  },
  {
    "street": "Via Fratelli Camperio",
    "number": "22",
    "city": {
      "name": "Villasanta",
      "istat": "108049"
    },
    "latitude": 45.6043607,
    "longitude": 9.3044219
  },
  {
    "street": "Via Fratelli Camperio",
    "number": "23",
    "city": {
      "name": "Villasanta",
      "istat": "108049"
    },
    "latitude": 45.604473,
    "longitude": 9.3046507
  },
  {
    "street": "Via Fratelli Camperio",
    "number": "24",
    "city": {
      "name": "Villasanta",
      "istat": "108049"
    },
    "latitude": 45.6043312,
    "longitude": 9.3045724
  },
  {
    "street": "Via Fratelli Camperio",
    "number": "27",
    "city": {
      "name": "Villasanta",
      "istat": "108049"
    },
    "latitude": 45.6044463,
    "longitude": 9.3047851
  },
  {
    "street": "Via Fratelli Camperio",
    "number": "31",
    "city": {
      "name": "Villasanta",
      "istat": "108049"
    },
    "latitude": 45.6044126,
    "longitude": 9.3048854
  },
  {
    "street": "Via Edmondo De Amicis",
    "number": "11",
    "city": {
      "name": "Villasanta",
      "istat": "108049"
    },
    "latitude": 45.6040427,
    "longitude": 9.3036092
  },
  {
    "street": "Via Edmondo De Amicis",
    "number": "16",
    "city": {
      "name": "Villasanta",
      "istat": "108049"
    },
    "latitude": 45.6046441,
    "longitude": 9.3038497
  },
  {
    "street": "Via Fratelli Camperio",
    "number": "17",
    "city": {
      "name": "Villasanta",
      "istat": "108049"
    },
    "latitude": 45.6046358,
    "longitude": 9.3037658
  },
  {
    "street": "Via Edmondo De Amicis",
    "number": "18",
    "city": {
      "name": "Villasanta",
      "istat": "108049"
    },
    "latitude": 45.6043405,
    "longitude": 9.3036461
  },
  {
    "street": "Via Fratelli Camperio",
    "number": "19",
    "city": {
      "name": "Villasanta",
      "istat": "108049"
    },
    "latitude": 45.6045109,
    "longitude": 9.3043617
  },
  {
    "street": "Via Vittorio Veneto",
    "number": "5",
    "city": {
      "name": "Villasanta",
      "istat": "108049"
    },
    "latitude": 45.6037665,
    "longitude": 9.3021031
  },
  {
    "street": "Via Vittorio Veneto",
    "number": "12",
    "city": {
      "name": "Villasanta",
      "istat": "108049"
    },
    "latitude": 45.6034015,
    "longitude": 9.3016552
  },
  {
    "street": "Piazza Papa Giovanni Ventitreesimo",
    "number": "6",
    "city": {
      "name": "Villasanta",
      "istat": "108049"
    },
    "latitude": 45.6035886,
    "longitude": 9.3009097
  },
  {
    "street": "Piazza Papa Giovanni Ventitreesimo",
    "number": "7",
    "city": {
      "name": "Villasanta",
      "istat": "108049"
    },
    "latitude": 45.6036303,
    "longitude": 9.3009395
  },
  {
    "street": "Piazza Papa Giovanni Ventitreesimo",
    "number": "5",
    "city": {
      "name": "Villasanta",
      "istat": "108049"
    },
    "latitude": 45.6035524,
    "longitude": 9.3008748
  },
  {
    "street": "Piazza Papa Giovanni Ventitreesimo",
    "number": "1",
    "city": {
      "name": "Villasanta",
      "istat": "108049"
    },
    "latitude": 45.6034176,
    "longitude": 9.3011356
  },
  {
    "street": "Piazza Papa Giovanni Ventitreesimo",
    "number": "2",
    "city": {
      "name": "Villasanta",
      "istat": "108049"
    },
    "latitude": 45.6033081,
    "longitude": 9.3010815
  },
  {
    "street": "Piazza Papa Giovanni Ventitreesimo",
    "number": "3",
    "city": {
      "name": "Villasanta",
      "istat": "108049"
    },
    "latitude": 45.6032702,
    "longitude": 9.3006982
  },
  {
    "street": "Piazza Papa Giovanni Ventitreesimo",
    "number": "4",
    "city": {
      "name": "Villasanta",
      "istat": "108049"
    },
    "latitude": 45.6034288,
    "longitude": 9.3008006
  },
  {
    "street": "Piazza Papa Giovanni Ventitreesimo",
    "number": "8",
    "city": {
      "name": "Villasanta",
      "istat": "108049"
    },
    "latitude": 45.6036819,
    "longitude": 9.3009366
  },
  {
    "street": "Piazza Martiri di Belfiore",
    "number": "1",
    "city": {
      "name": "Villasanta",
      "istat": "108049"
    },
    "latitude": 45.603789,
    "longitude": 9.2998077
  },
  {
    "street": "Via Don Gaetano Galli",
    "number": "1",
    "city": {
      "name": "Villasanta",
      "istat": "108049"
    },
    "latitude": 45.6037295,
    "longitude": 9.2996068
  },
  {
    "street": "Via Federico Confalonieri",
    "number": "100",
    "city": {
      "name": "Villasanta",
      "istat": "108049"
    },
    "latitude": 45.6036688,
    "longitude": 9.2996278
  },
  {
    "street": "Via Don Gaetano Galli",
    "number": "15",
    "city": {
      "name": "Villasanta",
      "istat": "108049"
    },
    "latitude": 45.603952,
    "longitude": 9.2990692
  },
  {
    "street": "Piazza Martiri di Belfiore",
    "number": "2",
    "city": {
      "name": "Villasanta",
      "istat": "108049"
    },
    "latitude": 45.6037781,
    "longitude": 9.299995
  },
  {
    "street": "Via Don Gaetano Galli",
    "number": "2",
    "city": {
      "name": "Villasanta",
      "istat": "108049"
    },
    "latitude": 45.6038531,
    "longitude": 9.2994966
  },
  {
    "street": "Piazza Martiri di Belfiore",
    "number": "3",
    "city": {
      "name": "Villasanta",
      "istat": "108049"
    },
    "latitude": 45.6037586,
    "longitude": 9.3000743
  },
  {
    "street": "Via Don Gaetano Galli",
    "number": "4",
    "city": {
      "name": "Villasanta",
      "istat": "108049"
    },
    "latitude": 45.6039171,
    "longitude": 9.2993457
  },
  {
    "street": "Via Federico Confalonieri",
    "number": "103",
    "city": {
      "name": "Villasanta",
      "istat": "108049"
    },
    "latitude": 45.60264,
    "longitude": 9.2991499
  },
  {
    "street": "Via Don Gaetano Galli",
    "number": "11",
    "city": {
      "name": "Villasanta",
      "istat": "108049"
    },
    "latitude": 45.6038547,
    "longitude": 9.2993231
  },
  {
    "street": "Via Don Gaetano Galli",
    "number": "13",
    "city": {
      "name": "Villasanta",
      "istat": "108049"
    },
    "latitude": 45.6039073,
    "longitude": 9.2991997
  },
  {
    "street": "Via Gerolamo Bestetti",
    "number": "2",
    "city": {
      "name": "Villasanta",
      "istat": "108049"
    },
    "latitude": 45.6034104,
    "longitude": 9.2998278
  },
  {
    "street": "Via Don Gaetano Galli",
    "number": "3",
    "city": {
      "name": "Villasanta",
      "istat": "108049"
    },
    "latitude": 45.6037513,
    "longitude": 9.29955
  },
  {
    "street": "Via Don Gaetano Galli",
    "number": "6",
    "city": {
      "name": "Villasanta",
      "istat": "108049"
    },
    "latitude": 45.6040233,
    "longitude": 9.2991286
  },
  {
    "street": "Via Federico Confalonieri",
    "number": "98",
    "city": {
      "name": "Villasanta",
      "istat": "108049"
    },
    "latitude": 45.6037034,
    "longitude": 9.2996271
  },
  {
    "street": "Via Don Gaetano Galli",
    "number": "5",
    "city": {
      "name": "Villasanta",
      "istat": "108049"
    },
    "latitude": 45.6037702,
    "longitude": 9.2995004
  },
  {
    "street": "Via Gerolamo Bestetti",
    "number": "6",
    "city": {
      "name": "Villasanta",
      "istat": "108049"
    },
    "latitude": 45.6033556,
    "longitude": 9.3000084
  },
  {
    "street": "Via Gerolamo Bestetti",
    "number": "8",
    "city": {
      "name": "Villasanta",
      "istat": "108049"
    },
    "latitude": 45.6033261,
    "longitude": 9.3001047
  },
  {
    "street": "Via Federico Confalonieri",
    "number": "102",
    "city": {
      "name": "Villasanta",
      "istat": "108049"
    },
    "latitude": 45.6036327,
    "longitude": 9.2996051
  },
  {
    "street": "Via Gerolamo Bestetti",
    "number": "4",
    "city": {
      "name": "Villasanta",
      "istat": "108049"
    },
    "latitude": 45.6033823,
    "longitude": 9.2999141
  },
  {
    "street": "Via Don Gaetano Galli",
    "number": "7",
    "city": {
      "name": "Villasanta",
      "istat": "108049"
    },
    "latitude": 45.603797,
    "longitude": 9.2994564
  },
  {
    "street": "Via Federico Confalonieri",
    "number": "133",
    "city": {
      "name": "Villasanta",
      "istat": "108049"
    },
    "latitude": 45.6016471,
    "longitude": 9.2983276
  },
  {
    "street": "Via Flavio Gioia",
    "number": "13a",
    "city": {
      "name": "Villasanta",
      "istat": "108049"
    },
    "latitude": 45.5975397,
    "longitude": 9.2970484
  },
  {
    "street": "Via Angelo Farina",
    "number": "21b",
    "city": {
      "name": "Villasanta",
      "istat": "108049"
    },
    "latitude": 45.5988397,
    "longitude": 9.2964133
  },
  {
    "street": "Via Angelo Farina",
    "number": "7",
    "city": {
      "name": "Villasanta",
      "istat": "108049"
    },
    "latitude": 45.6004846,
    "longitude": 9.2976133
  },
  {
    "street": "Via Angelo Farina",
    "number": "21",
    "city": {
      "name": "Villasanta",
      "istat": "108049"
    },
    "latitude": 45.600227,
    "longitude": 9.2974292
  },
  {
    "street": "Via Angelo Farina",
    "number": "1",
    "city": {
      "name": "Villasanta",
      "istat": "108049"
    },
    "latitude": 45.601143,
    "longitude": 9.2980057
  },
  {
    "street": "Via Flavio Gioia",
    "number": "1",
    "city": {
      "name": "Villasanta",
      "istat": "108049"
    },
    "latitude": 45.5977942,
    "longitude": 9.2956736
  },
  {
    "street": "Via Filippo Meda",
    "number": "11",
    "city": {
      "name": "Villasanta",
      "istat": "108049"
    },
    "latitude": 45.5996888,
    "longitude": 9.2991556
  },
  {
    "street": "Via Angelo Farina",
    "number": "11",
    "city": {
      "name": "Villasanta",
      "istat": "108049"
    },
    "latitude": 45.6001134,
    "longitude": 9.2973223
  },
  {
    "street": "Via Federico Confalonieri",
    "number": "119",
    "city": {
      "name": "Villasanta",
      "istat": "108049"
    },
    "latitude": 45.6021706,
    "longitude": 9.2987494
  },
  {
    "street": "Via Filippo Meda",
    "number": "1",
    "city": {
      "name": "Villasanta",
      "istat": "108049"
    },
    "latitude": 45.5996058,
    "longitude": 9.2973568
  },
  {
    "street": "Via Filippo Turati",
    "number": "10",
    "city": {
      "name": "Villasanta",
      "istat": "108049"
    },
    "latitude": 45.6002513,
    "longitude": 9.2996674
  },
  {
    "street": "Via Angelo Farina",
    "number": "15",
    "city": {
      "name": "Villasanta",
      "istat": "108049"
    },
    "latitude": 45.599947,
    "longitude": 9.2973616
  },
  {
    "street": "Via Federico Confalonieri",
    "number": "121",
    "city": {
      "name": "Villasanta",
      "istat": "108049"
    },
    "latitude": 45.6020744,
    "longitude": 9.2986782
  },
  {
    "street": "Via Federico Confalonieri",
    "number": "123",
    "city": {
      "name": "Villasanta",
      "istat": "108049"
    },
    "latitude": 45.6020185,
    "longitude": 9.2986401
  },
  {
    "street": "Via Federico Confalonieri",
    "number": "129",
    "city": {
      "name": "Villasanta",
      "istat": "108049"
    },
    "latitude": 45.6019747,
    "longitude": 9.298602
  },
  {
    "street": "Via Angelo Farina",
    "number": "13",
    "city": {
      "name": "Villasanta",
      "istat": "108049"
    },
    "latitude": 45.6000466,
    "longitude": 9.2974083
  },
  {
    "street": "Via Federico Confalonieri",
    "number": "131",
    "city": {
      "name": "Villasanta",
      "istat": "108049"
    },
    "latitude": 45.6018304,
    "longitude": 9.298494
  },
  {
    "street": "Via Flavio Gioia",
    "number": "13",
    "city": {
      "name": "Villasanta",
      "istat": "108049"
    },
    "latitude": 45.5975546,
    "longitude": 9.2969771
  },
  {
    "street": "Via Angelo Farina",
    "number": "17",
    "city": {
      "name": "Villasanta",
      "istat": "108049"
    },
    "latitude": 45.5998662,
    "longitude": 9.297315
  },
  {
    "street": "Via Angelo Farina",
    "number": "19",
    "city": {
      "name": "Villasanta",
      "istat": "108049"
    },
    "latitude": 45.5997937,
    "longitude": 9.2970762
  },
  {
    "street": "Via Angelo Farina",
    "number": "25",
    "city": {
      "name": "Villasanta",
      "istat": "108049"
    },
    "latitude": 45.5982209,
    "longitude": 9.29618
  },
  {
    "street": "Via Angelo Farina",
    "number": "3",
    "city": {
      "name": "Villasanta",
      "istat": "108049"
    },
    "latitude": 45.6009049,
    "longitude": 9.2978494
  },
  {
    "street": "Via Filippo Meda",
    "number": "3",
    "city": {
      "name": "Villasanta",
      "istat": "108049"
    },
    "latitude": 45.5995047,
    "longitude": 9.297749
  },
  {
    "street": "Via Amerigo Vespucci",
    "number": "8",
    "city": {
      "name": "Villasanta",
      "istat": "108049"
    },
    "latitude": 45.6010537,
    "longitude": 9.2984733
  },
  {
    "street": "Via Flavio Gioia",
    "number": "7",
    "city": {
      "name": "Villasanta",
      "istat": "108049"
    },
    "latitude": 45.5976582,
    "longitude": 9.2964368
  },
  {
    "street": "Via Filippo Meda",
    "number": "8",
    "city": {
      "name": "Villasanta",
      "istat": "108049"
    },
    "latitude": 45.5993047,
    "longitude": 9.2983887
  },
  {
    "street": "Via Angelo Farina",
    "number": "9",
    "city": {
      "name": "Villasanta",
      "istat": "108049"
    },
    "latitude": 45.6003971,
    "longitude": 9.2975022
  },
  {
    "street": "Via Filippo Meda",
    "number": "18",
    "city": {
      "name": "Villasanta",
      "istat": "108049"
    },
    "latitude": 45.5997263,
    "longitude": 9.2993464
  },
  {
    "street": "Via Filippo Turati",
    "number": "18",
    "city": {
      "name": "Villasanta",
      "istat": "108049"
    },
    "latitude": 45.6000659,
    "longitude": 9.3004553
  },
  {
    "street": "Via Filippo Meda",
    "number": "2",
    "city": {
      "name": "Villasanta",
      "istat": "108049"
    },
    "latitude": 45.5994586,
    "longitude": 9.2975244
  },
  {
    "street": "Via Angelo Farina",
    "number": "21a",
    "city": {
      "name": "Villasanta",
      "istat": "108049"
    },
    "latitude": 45.5988908,
    "longitude": 9.2964259
  },
  {
    "street": "Via Angelo Farina",
    "number": "27",
    "city": {
      "name": "Villasanta",
      "istat": "108049"
    },
    "latitude": 45.5981735,
    "longitude": 9.2961729
  },
  {
    "street": "Via Thomas Alva Edison",
    "number": "27",
    "city": {
      "name": "Villasanta",
      "istat": "108049"
    },
    "latitude": 45.5989507,
    "longitude": 9.2972419
  },
  {
    "street": "Via Flavio Gioia",
    "number": "3",
    "city": {
      "name": "Villasanta",
      "istat": "108049"
    },
    "latitude": 45.5977593,
    "longitude": 9.2957182
  },
  {
    "street": "Via Filippo Meda",
    "number": "4",
    "city": {
      "name": "Villasanta",
      "istat": "108049"
    },
    "latitude": 45.5993525,
    "longitude": 9.2981449
  },
  {
    "street": "Via Filippo Turati",
    "number": "4",
    "city": {
      "name": "Villasanta",
      "istat": "108049"
    },
    "latitude": 45.6004749,
    "longitude": 9.2984329
  },
  {
    "street": "Via Angelo Farina",
    "number": "5",
    "city": {
      "name": "Villasanta",
      "istat": "108049"
    },
    "latitude": 45.6005502,
    "longitude": 9.297655
  },
  {
    "street": "Via Filippo Meda",
    "number": "6",
    "city": {
      "name": "Villasanta",
      "istat": "108049"
    },
    "latitude": 45.5992441,
    "longitude": 9.2983344
  },
  {
    "street": "Via Filippo Turati",
    "number": "8",
    "city": {
      "name": "Villasanta",
      "istat": "108049"
    },
    "latitude": 45.6004093,
    "longitude": 9.2990892
  },
  {
    "street": "Via Flavio Gioia",
    "number": "9",
    "city": {
      "name": "Villasanta",
      "istat": "108049"
    },
    "latitude": 45.5975746,
    "longitude": 9.2968523
  },
  {
    "street": "Via Angelo Farina",
    "number": "23",
    "city": {
      "name": "Villasanta",
      "istat": "108049"
    },
    "latitude": 45.5983282,
    "longitude": 9.2962032
  },
  {
    "street": "Via Thomas Alva Edison",
    "number": "25",
    "city": {
      "name": "Villasanta",
      "istat": "108049"
    },
    "latitude": 45.5989307,
    "longitude": 9.2973347
  },
  {
    "street": "Via Amerigo Vespucci",
    "number": "4",
    "city": {
      "name": "Villasanta",
      "istat": "108049"
    },
    "latitude": 45.6011645,
    "longitude": 9.2981528
  },
  {
    "street": "Via Filippo Meda",
    "number": "5",
    "city": {
      "name": "Villasanta",
      "istat": "108049"
    },
    "latitude": 45.5994144,
    "longitude": 9.298462
  },
  {
    "street": "Via Amerigo Vespucci",
    "number": "6",
    "city": {
      "name": "Villasanta",
      "istat": "108049"
    },
    "latitude": 45.6011018,
    "longitude": 9.2983002
  },
  {
    "street": "Via Filippo Turati",
    "number": "6",
    "city": {
      "name": "Villasanta",
      "istat": "108049"
    },
    "latitude": 45.600436,
    "longitude": 9.2986239
  },
  {
    "street": "Via Federico Confalonieri",
    "number": "86",
    "city": {
      "name": "Villasanta",
      "istat": "108049"
    },
    "latitude": 45.6040499,
    "longitude": 9.2998161
  },
  {
    "street": "Via Ada Negri",
    "number": "9",
    "city": {
      "name": "Villasanta",
      "istat": "108049"
    },
    "latitude": 45.6048624,
    "longitude": 9.2999549
  },
  {
    "street": "Via Don Galileo Vercesi",
    "number": "9",
    "city": {
      "name": "Villasanta",
      "istat": "108049"
    },
    "latitude": 45.6020887,
    "longitude": 9.2995895
  },
  {
    "street": "Via Federico Confalonieri",
    "number": "35",
    "city": {
      "name": "Villasanta",
      "istat": "108049"
    },
    "latitude": 45.6048512,
    "longitude": 9.3006999
  },
  {
    "street": "Via Thomas Alva Edison",
    "number": "36",
    "city": {
      "name": "Villasanta",
      "istat": "108049"
    },
    "latitude": 45.599886,
    "longitude": 9.3010265
  },
  {
    "street": "Via Federico Confalonieri",
    "number": "29",
    "city": {
      "name": "Villasanta",
      "istat": "108049"
    },
    "latitude": 45.605036,
    "longitude": 9.3008608
  },
  {
    "street": "Piazza Andrea Oggioni",
    "number": "5",
    "city": {
      "name": "Villasanta",
      "istat": "108049"
    },
    "latitude": 45.6025684,
    "longitude": 9.299386
  },
  {
    "street": "Via Federico Confalonieri",
    "number": "105",
    "city": {
      "name": "Villasanta",
      "istat": "108049"
    },
    "latitude": 45.6026059,
    "longitude": 9.299099
  },
  {
    "street": "Via Federico Confalonieri",
    "number": "106",
    "city": {
      "name": "Villasanta",
      "istat": "108049"
    },
    "latitude": 45.6035695,
    "longitude": 9.2995482
  },
  {
    "street": "Via Federico Confalonieri",
    "number": "107",
    "city": {
      "name": "Villasanta",
      "istat": "108049"
    },
    "latitude": 45.6025599,
    "longitude": 9.2990668
  },
  {
    "street": "Via Federico Confalonieri",
    "number": "108",
    "city": {
      "name": "Villasanta",
      "istat": "108049"
    },
    "latitude": 45.6035357,
    "longitude": 9.2995241
  },
  {
    "street": "Via Amerigo Vespucci",
    "number": "11",
    "city": {
      "name": "Villasanta",
      "istat": "108049"
    },
    "latitude": 45.6005236,
    "longitude": 9.3006986
  },
  {
    "street": "Via Giacomo Matteotti",
    "number": "11",
    "city": {
      "name": "Villasanta",
      "istat": "108049"
    },
    "latitude": 45.6027307,
    "longitude": 9.2999975
  },
  {
    "street": "Via Federico Confalonieri",
    "number": "116",
    "city": {
      "name": "Villasanta",
      "istat": "108049"
    },
    "latitude": 45.6033584,
    "longitude": 9.2994034
  },
  {
    "street": "Via Federico Confalonieri",
    "number": "118",
    "city": {
      "name": "Villasanta",
      "istat": "108049"
    },
    "latitude": 45.603228,
    "longitude": 9.2992317
  },
  {
    "street": "Via Amerigo Vespucci",
    "number": "13",
    "city": {
      "name": "Villasanta",
      "istat": "108049"
    },
    "latitude": 45.6004673,
    "longitude": 9.3008957
  },
  {
    "street": "Via Amerigo Vespucci",
    "number": "14",
    "city": {
      "name": "Villasanta",
      "istat": "108049"
    },
    "latitude": 45.6009243,
    "longitude": 9.2988727
  },
  {
    "street": "Via Monte Grappa",
    "number": "14",
    "city": {
      "name": "Villasanta",
      "istat": "108049"
    },
    "latitude": 45.6008257,
    "longitude": 9.3002493
  },
  {
    "street": "Via Amerigo Vespucci",
    "number": "15",
    "city": {
      "name": "Villasanta",
      "istat": "108049"
    },
    "latitude": 45.6004223,
    "longitude": 9.3010419
  },
  {
    "street": "Via Don Galileo Vercesi",
    "number": "15",
    "city": {
      "name": "Villasanta",
      "istat": "108049"
    },
    "latitude": 45.6018795,
    "longitude": 9.3001474
  },
  {
    "street": "Via Flavio Gioia",
    "number": "15",
    "city": {
      "name": "Villasanta",
      "istat": "108049"
    },
    "latitude": 45.5975223,
    "longitude": 9.2971768
  },
  {
    "street": "Via Thomas Alva Edison",
    "number": "15",
    "city": {
      "name": "Villasanta",
      "istat": "108049"
    },
    "latitude": 45.5985756,
    "longitude": 9.298935
  },
  {
    "street": "Via Amerigo Vespucci",
    "number": "17",
    "city": {
      "name": "Villasanta",
      "istat": "108049"
    },
    "latitude": 45.600396,
    "longitude": 9.3011411
  },
  {
    "street": "Via Giacomo Matteotti",
    "number": "17",
    "city": {
      "name": "Villasanta",
      "istat": "108049"
    },
    "latitude": 45.6026191,
    "longitude": 9.3004682
  },
  {
    "street": "Via Amerigo Vespucci",
    "number": "18",
    "city": {
      "name": "Villasanta",
      "istat": "108049"
    },
    "latitude": 45.600777,
    "longitude": 9.2993541
  },
  {
    "street": "Via Don Galileo Vercesi",
    "number": "2",
    "city": {
      "name": "Villasanta",
      "istat": "108049"
    },
    "latitude": 45.6020052,
    "longitude": 9.2994339
  },
  {
    "street": "Via Don Galileo Vercesi",
    "number": "22",
    "city": {
      "name": "Villasanta",
      "istat": "108049"
    },
    "latitude": 45.6012034,
    "longitude": 9.3022046
  },
  {
    "street": "Via Thomas Alva Edison",
    "number": "22",
    "city": {
      "name": "Villasanta",
      "istat": "108049"
    },
    "latitude": 45.6015647,
    "longitude": 9.3027739
  },
  {
    "street": "Via Thomas Alva Edison",
    "number": "24",
    "city": {
      "name": "Villasanta",
      "istat": "108049"
    },
    "latitude": 45.6015121,
    "longitude": 9.302731
  },
  {
    "street": "Via Federico Confalonieri",
    "number": "27",
    "city": {
      "name": "Villasanta",
      "istat": "108049"
    },
    "latitude": 45.6051045,
    "longitude": 9.3009279
  },
  {
    "street": "Via Flavio Gioia",
    "number": "27",
    "city": {
      "name": "Villasanta",
      "istat": "108049"
    },
    "latitude": 45.597359,
    "longitude": 9.2983852
  },
  {
    "street": "Via Don Galileo Vercesi",
    "number": "3",
    "city": {
      "name": "Villasanta",
      "istat": "108049"
    },
    "latitude": 45.6021928,
    "longitude": 9.2991912
  },
  {
    "street": "Via Paolo Bonfanti",
    "number": "3",
    "city": {
      "name": "Villasanta",
      "istat": "108049"
    },
    "latitude": 45.6016369,
    "longitude": 9.3020933
  },
  {
    "street": "Viale dei Tigli",
    "number": "3",
    "city": {
      "name": "Villasanta",
      "istat": "108049"
    },
    "latitude": 45.6015869,
    "longitude": 9.3015921
  },
  {
    "street": "Via Federico Confalonieri",
    "number": "31",
    "city": {
      "name": "Villasanta",
      "istat": "108049"
    },
    "latitude": 45.6049778,
    "longitude": 9.3008139
  },
  {
    "street": "Via Amerigo Vespucci",
    "number": "32",
    "city": {
      "name": "Villasanta",
      "istat": "108049"
    },
    "latitude": 45.600685,
    "longitude": 9.2997149
  },
  {
    "street": "Via Flavio Gioia",
    "number": "33",
    "city": {
      "name": "Villasanta",
      "istat": "108049"
    },
    "latitude": 45.5975509,
    "longitude": 9.2990349
  },
  {
    "street": "Via Federico Confalonieri",
    "number": "36",
    "city": {
      "name": "Villasanta",
      "istat": "108049"
    },
    "latitude": 45.6049741,
    "longitude": 9.3005524
  },
  {
    "street": "Via Flavio Gioia",
    "number": "37",
    "city": {
      "name": "Villasanta",
      "istat": "108049"
    },
    "latitude": 45.5976898,
    "longitude": 9.299275
  },
  {
    "street": "Via Federico Confalonieri",
    "number": "38",
    "city": {
      "name": "Villasanta",
      "istat": "108049"
    },
    "latitude": 45.6049347,
    "longitude": 9.3005175
  },
  {
    "street": "Via Federico Confalonieri",
    "number": "39",
    "city": {
      "name": "Villasanta",
      "istat": "108049"
    },
    "latitude": 45.6047658,
    "longitude": 9.30061
  },
  {
    "street": "Via Giacomo Matteotti",
    "number": "4",
    "city": {
      "name": "Villasanta",
      "istat": "108049"
    },
    "latitude": 45.6025158,
    "longitude": 9.3001772
  },
  {
    "street": "Via Thomas Alva Edison",
    "number": "42",
    "city": {
      "name": "Villasanta",
      "istat": "108049"
    },
    "latitude": 45.5991138,
    "longitude": 9.3004793
  },
  {
    "street": "Via Amerigo Vespucci",
    "number": "44",
    "city": {
      "name": "Villasanta",
      "istat": "108049"
    },
    "latitude": 45.60032,
    "longitude": 9.3009131
  },
  {
    "street": "Via Thomas Alva Edison",
    "number": "46",
    "city": {
      "name": "Villasanta",
      "istat": "108049"
    },
    "latitude": 45.5986685,
    "longitude": 9.2995519
  },
  {
    "street": "Via Federico Confalonieri",
    "number": "49",
    "city": {
      "name": "Villasanta",
      "istat": "108049"
    },
    "latitude": 45.6045387,
    "longitude": 9.3002895
  },
  {
    "street": "Via Giacomo Matteotti",
    "number": "5",
    "city": {
      "name": "Villasanta",
      "istat": "108049"
    },
    "latitude": 45.6028349,
    "longitude": 9.2996823
  },
  {
    "street": "Via Amerigo Vespucci",
    "number": "50",
    "city": {
      "name": "Villasanta",
      "istat": "108049"
    },
    "latitude": 45.6002027,
    "longitude": 9.3012793
  },
  {
    "street": "Via Amerigo Vespucci",
    "number": "52",
    "city": {
      "name": "Villasanta",
      "istat": "108049"
    },
    "latitude": 45.6001708,
    "longitude": 9.3013959
  },
  {
    "street": "Via Thomas Alva Edison",
    "number": "54b",
    "city": {
      "name": "Villasanta",
      "istat": "108049"
    },
    "latitude": 45.598905,
    "longitude": 9.2982363
  },
  {
    "street": "Via Federico Confalonieri",
    "number": "56",
    "city": {
      "name": "Villasanta",
      "istat": "108049"
    },
    "latitude": 45.604595,
    "longitude": 9.3001635
  },
  {
    "street": "Via Don Galileo Vercesi",
    "number": "6",
    "city": {
      "name": "Villasanta",
      "istat": "108049"
    },
    "latitude": 45.6018429,
    "longitude": 9.2999261
  },
  {
    "street": "Via Federico Confalonieri",
    "number": "61",
    "city": {
      "name": "Villasanta",
      "istat": "108049"
    },
    "latitude": 45.6041456,
    "longitude": 9.3000146
  },
  {
    "street": "Via Federico Confalonieri",
    "number": "65",
    "city": {
      "name": "Villasanta",
      "istat": "108049"
    },
    "latitude": 45.6039964,
    "longitude": 9.2998818
  },
  {
    "street": "Via Federico Confalonieri",
    "number": "67",
    "city": {
      "name": "Villasanta",
      "istat": "108049"
    },
    "latitude": 45.6039739,
    "longitude": 9.2998711
  },
  {
    "street": "Piazza Andrea Oggioni",
    "number": "7",
    "city": {
      "name": "Villasanta",
      "istat": "108049"
    },
    "latitude": 45.6026031,
    "longitude": 9.2992706
  },
  {
    "street": "Via Cristoforo Colombo",
    "number": "7",
    "city": {
      "name": "Villasanta",
      "istat": "108049"
    },
    "latitude": 45.6014169,
    "longitude": 9.3000206
  },
  {
    "street": "Via Monte Grappa",
    "number": "7",
    "city": {
      "name": "Villasanta",
      "istat": "108049"
    },
    "latitude": 45.6013259,
    "longitude": 9.3010486
  },
  {
    "street": "Via Federico Confalonieri",
    "number": "72",
    "city": {
      "name": "Villasanta",
      "istat": "108049"
    },
    "latitude": 45.6044064,
    "longitude": 9.2999985
  },
  {
    "street": "Via Federico Confalonieri",
    "number": "76",
    "city": {
      "name": "Villasanta",
      "istat": "108049"
    },
    "latitude": 45.6043014,
    "longitude": 9.2999449
  },
  {
    "street": "Via Federico Confalonieri",
    "number": "80",
    "city": {
      "name": "Villasanta",
      "istat": "108049"
    },
    "latitude": 45.6041916,
    "longitude": 9.2998885
  },
  {
    "street": "Via Federico Confalonieri",
    "number": "84",
    "city": {
      "name": "Villasanta",
      "istat": "108049"
    },
    "latitude": 45.6040884,
    "longitude": 9.2998429
  },
  {
    "street": "Via Amerigo Vespucci",
    "number": "40",
    "city": {
      "name": "Villasanta",
      "istat": "108049"
    },
    "latitude": 45.6004551,
    "longitude": 9.3004666
  },
  {
    "street": "Via Federico Confalonieri",
    "number": "110",
    "city": {
      "name": "Villasanta",
      "istat": "108049"
    },
    "latitude": 45.6035067,
    "longitude": 9.2995
  },
  {
    "street": "Viale dei Tigli",
    "number": "16",
    "city": {
      "name": "Villasanta",
      "istat": "108049"
    },
    "latitude": 45.6016826,
    "longitude": 9.3014714
  },
  {
    "street": "Via Federico Confalonieri",
    "number": "78",
    "city": {
      "name": "Villasanta",
      "istat": "108049"
    },
    "latitude": 45.6042498,
    "longitude": 9.2999261
  },
  {
    "street": "Via Federico Confalonieri",
    "number": "89",
    "city": {
      "name": "Villasanta",
      "istat": "108049"
    },
    "latitude": 45.6030094,
    "longitude": 9.2997011
  },
  {
    "street": "Piazza Andrea Oggioni",
    "number": "1",
    "city": {
      "name": "Villasanta",
      "istat": "108049"
    },
    "latitude": 45.6025796,
    "longitude": 9.2996421
  },
  {
    "street": "Via Federico Confalonieri",
    "number": "25",
    "city": {
      "name": "Villasanta",
      "istat": "108049"
    },
    "latitude": 45.6051702,
    "longitude": 9.3009842
  },
  {
    "street": "Via Federico Confalonieri",
    "number": "83",
    "city": {
      "name": "Villasanta",
      "istat": "108049"
    },
    "latitude": 45.6031004,
    "longitude": 9.2994396
  },
  {
    "street": "Via Giacomo Matteotti",
    "number": "1",
    "city": {
      "name": "Villasanta",
      "istat": "108049"
    },
    "latitude": 45.6028874,
    "longitude": 9.299504
  },
  {
    "street": "Viale dei Tigli",
    "number": "1",
    "city": {
      "name": "Villasanta",
      "istat": "108049"
    },
    "latitude": 45.6019829,
    "longitude": 9.3018147
  },
  {
    "street": "Via Ada Negri",
    "number": "10",
    "city": {
      "name": "Villasanta",
      "istat": "108049"
    },
    "latitude": 45.6043558,
    "longitude": 9.2989893
  },
  {
    "street": "Via Federico Confalonieri",
    "number": "109",
    "city": {
      "name": "Villasanta",
      "istat": "108049"
    },
    "latitude": 45.6025083,
    "longitude": 9.2989823
  },
  {
    "street": "Via Don Galileo Vercesi",
    "number": "11",
    "city": {
      "name": "Villasanta",
      "istat": "108049"
    },
    "latitude": 45.6020371,
    "longitude": 9.2997866
  },
  {
    "street": "Via Monte Grappa",
    "number": "11",
    "city": {
      "name": "Villasanta",
      "istat": "108049"
    },
    "latitude": 45.6011251,
    "longitude": 9.3006825
  },
  {
    "street": "Via Ada Negri",
    "number": "21",
    "city": {
      "name": "Villasanta",
      "istat": "108049"
    },
    "latitude": 45.6041963,
    "longitude": 9.2990081
  },
  {
    "street": "Via Cristoforo Colombo",
    "number": "4",
    "city": {
      "name": "Villasanta",
      "istat": "108049"
    },
    "latitude": 45.6015557,
    "longitude": 9.2997578
  },
  {
    "street": "Via Thomas Alva Edison",
    "number": "54",
    "city": {
      "name": "Villasanta",
      "istat": "108049"
    },
    "latitude": 45.5988534,
    "longitude": 9.298475
  },
  {
    "street": "Via Don Galileo Vercesi",
    "number": "8",
    "city": {
      "name": "Villasanta",
      "istat": "108049"
    },
    "latitude": 45.6017378,
    "longitude": 9.3002909
  },
  {
    "street": "Piazza Andrea Oggioni",
    "number": "9",
    "city": {
      "name": "Villasanta",
      "istat": "108049"
    },
    "latitude": 45.6026219,
    "longitude": 9.299217
  },
  {
    "street": "Via Federico Confalonieri",
    "number": "112",
    "city": {
      "name": "Villasanta",
      "istat": "108049"
    },
    "latitude": 45.6034663,
    "longitude": 9.2994731
  },
  {
    "street": "Via Don Gaetano Galli",
    "number": "12",
    "city": {
      "name": "Villasanta",
      "istat": "108049"
    },
    "latitude": 45.6040804,
    "longitude": 9.298593
  },
  {
    "street": "Via Ada Negri",
    "number": "12a",
    "city": {
      "name": "Villasanta",
      "istat": "108049"
    },
    "latitude": 45.6041911,
    "longitude": 9.2987593
  },
  {
    "street": "Via Ada Negri",
    "number": "13",
    "city": {
      "name": "Villasanta",
      "istat": "108049"
    },
    "latitude": 45.6047123,
    "longitude": 9.2997725
  },
  {
    "street": "Via Monte Grappa",
    "number": "13",
    "city": {
      "name": "Villasanta",
      "istat": "108049"
    },
    "latitude": 45.6009806,
    "longitude": 9.3006262
  },
  {
    "street": "Via Thomas Alva Edison",
    "number": "13",
    "city": {
      "name": "Villasanta",
      "istat": "108049"
    },
    "latitude": 45.5985419,
    "longitude": 9.2991241
  },
  {
    "street": "Via Don Gaetano Galli",
    "number": "14",
    "city": {
      "name": "Villasanta",
      "istat": "108049"
    },
    "latitude": 45.604018,
    "longitude": 9.2984422
  },
  {
    "street": "Via Ada Negri",
    "number": "15",
    "city": {
      "name": "Villasanta",
      "istat": "108049"
    },
    "latitude": 45.6046382,
    "longitude": 9.2996237
  },
  {
    "street": "Via Benvenuto Cellini",
    "number": "15",
    "city": {
      "name": "Villasanta",
      "istat": "108049"
    },
    "latitude": 45.602745,
    "longitude": 9.3050901
  },
  {
    "street": "Via Monte Grappa",
    "number": "15",
    "city": {
      "name": "Villasanta",
      "istat": "108049"
    },
    "latitude": 45.6007948,
    "longitude": 9.3005068
  },
  {
    "street": "Via Amerigo Vespucci",
    "number": "16",
    "city": {
      "name": "Villasanta",
      "istat": "108049"
    },
    "latitude": 45.6007873,
    "longitude": 9.2993085
  },
  {
    "street": "Via Ada Negri",
    "number": "17",
    "city": {
      "name": "Villasanta",
      "istat": "108049"
    },
    "latitude": 45.6044937,
    "longitude": 9.2994252
  },
  {
    "street": "Via Benvenuto Cellini",
    "number": "17",
    "city": {
      "name": "Villasanta",
      "istat": "108049"
    },
    "latitude": 45.6023209,
    "longitude": 9.304846
  },
  {
    "street": "Via Don Gaetano Galli",
    "number": "17",
    "city": {
      "name": "Villasanta",
      "istat": "108049"
    },
    "latitude": 45.6040175,
    "longitude": 9.2989256
  },
  {
    "street": "Via Monte Grappa",
    "number": "17",
    "city": {
      "name": "Villasanta",
      "istat": "108049"
    },
    "latitude": 45.6006747,
    "longitude": 9.3004505
  },
  {
    "street": "Via Monte Grappa",
    "number": "2",
    "city": {
      "name": "Villasanta",
      "istat": "108049"
    },
    "latitude": 45.6021025,
    "longitude": 9.300774
  },
  {
    "street": "Via Don Gaetano Galli",
    "number": "21",
    "city": {
      "name": "Villasanta",
      "istat": "108049"
    },
    "latitude": 45.6038294,
    "longitude": 9.2983724
  },
  {
    "street": "Via Amerigo Vespucci",
    "number": "22",
    "city": {
      "name": "Villasanta",
      "istat": "108049"
    },
    "latitude": 45.6007366,
    "longitude": 9.2994882
  },
  {
    "street": "Via Amerigo Vespucci",
    "number": "24",
    "city": {
      "name": "Villasanta",
      "istat": "108049"
    },
    "latitude": 45.6007263,
    "longitude": 9.2995365
  },
  {
    "street": "Via Don Gaetano Galli",
    "number": "25",
    "city": {
      "name": "Villasanta",
      "istat": "108049"
    },
    "latitude": 45.6034147,
    "longitude": 9.2985173
  },
  {
    "street": "Via Don Galileo Vercesi",
    "number": "25",
    "city": {
      "name": "Villasanta",
      "istat": "108049"
    },
    "latitude": 45.601301,
    "longitude": 9.3022838
  },
  {
    "street": "Via Flavio Gioia",
    "number": "25",
    "city": {
      "name": "Villasanta",
      "istat": "108049"
    },
    "latitude": 45.5974285,
    "longitude": 9.2981424
  },
  {
    "street": "Via Thomas Alva Edison",
    "number": "26",
    "city": {
      "name": "Villasanta",
      "istat": "108049"
    },
    "latitude": 45.6013714,
    "longitude": 9.3026023
  },
  {
    "street": "Via Amerigo Vespucci",
    "number": "28",
    "city": {
      "name": "Villasanta",
      "istat": "108049"
    },
    "latitude": 45.6007019,
    "longitude": 9.299621
  },
  {
    "street": "Via Don Gaetano Galli",
    "number": "29",
    "city": {
      "name": "Villasanta",
      "istat": "108049"
    },
    "latitude": 45.6031529,
    "longitude": 9.29876
  },
  {
    "street": "Via Flavio Gioia",
    "number": "29",
    "city": {
      "name": "Villasanta",
      "istat": "108049"
    },
    "latitude": 45.5973346,
    "longitude": 9.2985126
  },
  {
    "street": "Via Giacomo Matteotti",
    "number": "29",
    "city": {
      "name": "Villasanta",
      "istat": "108049"
    },
    "latitude": 45.602053,
    "longitude": 9.3030435
  },
  {
    "street": "Via Federico Confalonieri",
    "number": "43",
    "city": {
      "name": "Villasanta",
      "istat": "108049"
    },
    "latitude": 45.6046598,
    "longitude": 9.3004089
  },
  {
    "street": "Via Federico Confalonieri",
    "number": "81",
    "city": {
      "name": "Villasanta",
      "istat": "108049"
    },
    "latitude": 45.6031745,
    "longitude": 9.2994852
  },
  {
    "street": "Via Federico Confalonieri",
    "number": "74",
    "city": {
      "name": "Villasanta",
      "istat": "108049"
    },
    "latitude": 45.6043708,
    "longitude": 9.2999824
  },
  {
    "street": "Via Federico Confalonieri",
    "number": "41",
    "city": {
      "name": "Villasanta",
      "istat": "108049"
    },
    "latitude": 45.6047208,
    "longitude": 9.3004652
  },
  {
    "street": "Via Don Galileo Vercesi",
    "number": "1",
    "city": {
      "name": "Villasanta",
      "istat": "108049"
    },
    "latitude": 45.6022501,
    "longitude": 9.2989229
  },
  {
    "street": "Via Monte Grappa",
    "number": "1",
    "city": {
      "name": "Villasanta",
      "istat": "108049"
    },
    "latitude": 45.6022029,
    "longitude": 9.3012421
  },
  {
    "street": "Via Monte Grappa",
    "number": "1a",
    "city": {
      "name": "Villasanta",
      "istat": "108049"
    },
    "latitude": 45.6021326,
    "longitude": 9.3011991
  },
  {
    "street": "Via Federico Confalonieri",
    "number": "104",
    "city": {
      "name": "Villasanta",
      "istat": "108049"
    },
    "latitude": 45.6036071,
    "longitude": 9.2995791
  },
  {
    "street": "Via Cristoforo Colombo",
    "number": "11",
    "city": {
      "name": "Villasanta",
      "istat": "108049"
    },
    "latitude": 45.6010003,
    "longitude": 9.2998061
  },
  {
    "street": "Via Federico Confalonieri",
    "number": "111",
    "city": {
      "name": "Villasanta",
      "istat": "108049"
    },
    "latitude": 45.6024502,
    "longitude": 9.298926
  },
  {
    "street": "Via Federico Confalonieri",
    "number": "114",
    "city": {
      "name": "Villasanta",
      "istat": "108049"
    },
    "latitude": 45.6034128,
    "longitude": 9.2994289
  },
  {
    "street": "Via Ada Negri",
    "number": "12",
    "city": {
      "name": "Villasanta",
      "istat": "108049"
    },
    "latitude": 45.6042685,
    "longitude": 9.2988566
  },
  {
    "street": "Via Monte Grappa",
    "number": "12",
    "city": {
      "name": "Villasanta",
      "istat": "108049"
    },
    "latitude": 45.6011645,
    "longitude": 9.3004143
  },
  {
    "street": "Via Federico Confalonieri",
    "number": "120",
    "city": {
      "name": "Villasanta",
      "istat": "108049"
    },
    "latitude": 45.6030929,
    "longitude": 9.2991432
  },
  {
    "street": "Via Don Gaetano Galli",
    "number": "18",
    "city": {
      "name": "Villasanta",
      "istat": "108049"
    },
    "latitude": 45.6036418,
    "longitude": 9.2980211
  },
  {
    "street": "Viale dei Tigli",
    "number": "18",
    "city": {
      "name": "Villasanta",
      "istat": "108049"
    },
    "latitude": 45.6016085,
    "longitude": 9.3014284
  },
  {
    "street": "Via Flavio Gioia",
    "number": "19",
    "city": {
      "name": "Villasanta",
      "istat": "108049"
    },
    "latitude": 45.5974913,
    "longitude": 9.2973901
  },
  {
    "street": "Via Giacomo Matteotti",
    "number": "19",
    "city": {
      "name": "Villasanta",
      "istat": "108049"
    },
    "latitude": 45.6025853,
    "longitude": 9.3010154
  },
  {
    "street": "Via Giacomo Matteotti",
    "number": "2",
    "city": {
      "name": "Villasanta",
      "istat": "108049"
    },
    "latitude": 45.6025384,
    "longitude": 9.300074
  },
  {
    "street": "Via Nazario Sauro",
    "number": "2",
    "city": {
      "name": "Villasanta",
      "istat": "108049"
    },
    "latitude": 45.6051814,
    "longitude": 9.3005926
  },
  {
    "street": "Via Amerigo Vespucci",
    "number": "20",
    "city": {
      "name": "Villasanta",
      "istat": "108049"
    },
    "latitude": 45.6007563,
    "longitude": 9.2994158
  },
  {
    "street": "Via Flavio Gioia",
    "number": "21",
    "city": {
      "name": "Villasanta",
      "istat": "108049"
    },
    "latitude": 45.5974641,
    "longitude": 9.2977092
  },
  {
    "street": "Via Don Gaetano Galli",
    "number": "27",
    "city": {
      "name": "Villasanta",
      "istat": "108049"
    },
    "latitude": 45.6031867,
    "longitude": 9.2986983
  },
  {
    "street": "Via Monte Grappa",
    "number": "3",
    "city": {
      "name": "Villasanta",
      "istat": "108049"
    },
    "latitude": 45.6019974,
    "longitude": 9.3011227
  },
  {
    "street": "Via Federico Confalonieri",
    "number": "34",
    "city": {
      "name": "Villasanta",
      "istat": "108049"
    },
    "latitude": 45.6050219,
    "longitude": 9.3006007
  },
  {
    "street": "Piazza Andrea Oggioni",
    "number": "4",
    "city": {
      "name": "Villasanta",
      "istat": "108049"
    },
    "latitude": 45.6025487,
    "longitude": 9.2994423
  },
  {
    "street": "Via Don Galileo Vercesi",
    "number": "4",
    "city": {
      "name": "Villasanta",
      "istat": "108049"
    },
    "latitude": 45.6019376,
    "longitude": 9.2996217
  },
  {
    "street": "Via Federico Confalonieri",
    "number": "40",
    "city": {
      "name": "Villasanta",
      "istat": "108049"
    },
    "latitude": 45.6048953,
    "longitude": 9.3004786
  },
  {
    "street": "Via Amerigo Vespucci",
    "number": "40a",
    "city": {
      "name": "Villasanta",
      "istat": "108049"
    },
    "latitude": 45.6004288,
    "longitude": 9.300543
  },
  {
    "street": "Via Amerigo Vespucci",
    "number": "46",
    "city": {
      "name": "Villasanta",
      "istat": "108049"
    },
    "latitude": 45.6002534,
    "longitude": 9.3011371
  },
  {
    "street": "Via Amerigo Vespucci",
    "number": "48",
    "city": {
      "name": "Villasanta",
      "istat": "108049"
    },
    "latitude": 45.6002384,
    "longitude": 9.3011961
  },
  {
    "street": "Via Ada Negri",
    "number": "5",
    "city": {
      "name": "Villasanta",
      "istat": "108049"
    },
    "latitude": 45.6049985,
    "longitude": 9.3001132
  },
  {
    "street": "Via Monte Grappa",
    "number": "5",
    "city": {
      "name": "Villasanta",
      "istat": "108049"
    },
    "latitude": 45.601791,
    "longitude": 9.3009819
  },
  {
    "street": "Via Federico Confalonieri",
    "number": "50",
    "city": {
      "name": "Villasanta",
      "istat": "108049"
    },
    "latitude": 45.6046973,
    "longitude": 9.3002788
  },
  {
    "street": "Via Federico Confalonieri",
    "number": "52",
    "city": {
      "name": "Villasanta",
      "istat": "108049"
    },
    "latitude": 45.6046617,
    "longitude": 9.3002386
  },
  {
    "street": "Via Federico Confalonieri",
    "number": "58",
    "city": {
      "name": "Villasanta",
      "istat": "108049"
    },
    "latitude": 45.6045678,
    "longitude": 9.3001272
  },
  {
    "street": "Via Thomas Alva Edison",
    "number": "58",
    "city": {
      "name": "Villasanta",
      "istat": "108049"
    },
    "latitude": 45.5989726,
    "longitude": 9.2979359
  },
  {
    "street": "Via Federico Confalonieri",
    "number": "62",
    "city": {
      "name": "Villasanta",
      "istat": "108049"
    },
    "latitude": 45.6045143,
    "longitude": 9.2999757
  },
  {
    "street": "Via Ada Negri",
    "number": "7",
    "city": {
      "name": "Villasanta",
      "istat": "108049"
    },
    "latitude": 45.6049206,
    "longitude": 9.3000086
  },
  {
    "street": "Via Amerigo Vespucci",
    "number": "7",
    "city": {
      "name": "Villasanta",
      "istat": "108049"
    },
    "latitude": 45.600928,
    "longitude": 9.2992254
  },
  {
    "street": "Via Amerigo Vespucci",
    "number": "7a",
    "city": {
      "name": "Villasanta",
      "istat": "108049"
    },
    "latitude": 45.6008971,
    "longitude": 9.2993286
  },
  {
    "street": "Via Federico Confalonieri",
    "number": "73",
    "city": {
      "name": "Villasanta",
      "istat": "108049"
    },
    "latitude": 45.6039073,
    "longitude": 9.2998483
  },
  {
    "street": "Via Thomas Alva Edison",
    "number": "19",
    "city": {
      "name": "Villasanta",
      "istat": "108049"
    },
    "latitude": 45.5987239,
    "longitude": 9.2982879
  },
  {
    "street": "Via Don Galileo Vercesi",
    "number": "20",
    "city": {
      "name": "Villasanta",
      "istat": "108049"
    },
    "latitude": 45.601286,
    "longitude": 9.3017741
  },
  {
    "street": "Via Monte Grappa",
    "number": "6",
    "city": {
      "name": "Villasanta",
      "istat": "108049"
    },
    "latitude": 45.6018492,
    "longitude": 9.3008598
  },
  {
    "street": "Via Don Galileo Vercesi",
    "number": "7",
    "city": {
      "name": "Villasanta",
      "istat": "108049"
    },
    "latitude": 45.6020887,
    "longitude": 9.2995211
  },
  {
    "street": "Via Ada Negri",
    "number": "8",
    "city": {
      "name": "Villasanta",
      "istat": "108049"
    },
    "latitude": 45.6045434,
    "longitude": 9.2992066
  },
  {
    "street": "Via Giacomo Matteotti",
    "number": "8",
    "city": {
      "name": "Villasanta",
      "istat": "108049"
    },
    "latitude": 45.6023929,
    "longitude": 9.3006225
  },
  {
    "street": "Via Federico Confalonieri",
    "number": "95",
    "city": {
      "name": "Villasanta",
      "istat": "108049"
    },
    "latitude": 45.602954,
    "longitude": 9.2997025
  },
  {
    "street": "Via Federico Confalonieri",
    "number": "97",
    "city": {
      "name": "Villasanta",
      "istat": "108049"
    },
    "latitude": 45.6029747,
    "longitude": 9.2996287
  },
  {
    "street": "Via Federico Confalonieri",
    "number": "42",
    "city": {
      "name": "Villasanta",
      "istat": "108049"
    },
    "latitude": 45.6048596,
    "longitude": 9.3004491
  },
  {
    "street": "Via Federico Confalonieri",
    "number": "115",
    "city": {
      "name": "Villasanta",
      "istat": "108049"
    },
    "latitude": 45.6022925,
    "longitude": 9.2988522
  },
  {
    "street": "Via Federico Confalonieri",
    "number": "69",
    "city": {
      "name": "Villasanta",
      "istat": "108049"
    },
    "latitude": 45.6039448,
    "longitude": 9.2998644
  },
  {
    "street": "Via Amerigo Vespucci",
    "number": "23",
    "city": {
      "name": "Villasanta",
      "istat": "108049"
    },
    "latitude": 45.60032,
    "longitude": 9.301341
  },
  {
    "street": "Via Don Galileo Vercesi",
    "number": "23",
    "city": {
      "name": "Villasanta",
      "istat": "108049"
    },
    "latitude": 45.601586,
    "longitude": 9.3011643
  },
  {
    "street": "Via Flavio Gioia",
    "number": "23",
    "city": {
      "name": "Villasanta",
      "istat": "108049"
    },
    "latitude": 45.597421,
    "longitude": 9.2979587
  },
  {
    "street": "Via Thomas Alva Edison",
    "number": "23",
    "city": {
      "name": "Villasanta",
      "istat": "108049"
    },
    "latitude": 45.5988252,
    "longitude": 9.29784
  },
  {
    "street": "Via Amerigo Vespucci",
    "number": "26",
    "city": {
      "name": "Villasanta",
      "istat": "108049"
    },
    "latitude": 45.600716,
    "longitude": 9.2995754
  },
  {
    "street": "Via Don Gaetano Galli",
    "number": "31",
    "city": {
      "name": "Villasanta",
      "istat": "108049"
    },
    "latitude": 45.6031135,
    "longitude": 9.2988217
  },
  {
    "street": "Via Thomas Alva Edison",
    "number": "30",
    "city": {
      "name": "Villasanta",
      "istat": "108049"
    },
    "latitude": 45.6006808,
    "longitude": 9.3019424
  },
  {
    "street": "Via Flavio Gioia",
    "number": "31",
    "city": {
      "name": "Villasanta",
      "istat": "108049"
    },
    "latitude": 45.5973177,
    "longitude": 9.298644
  },
  {
    "street": "Via Federico Confalonieri",
    "number": "33",
    "city": {
      "name": "Villasanta",
      "istat": "108049"
    },
    "latitude": 45.6049112,
    "longitude": 9.3007602
  },
  {
    "street": "Via Amerigo Vespucci",
    "number": "34",
    "city": {
      "name": "Villasanta",
      "istat": "108049"
    },
    "latitude": 45.6006315,
    "longitude": 9.2998664
  },
  {
    "street": "Via Flavio Gioia",
    "number": "35",
    "city": {
      "name": "Villasanta",
      "istat": "108049"
    },
    "latitude": 45.597764,
    "longitude": 9.2986983
  },
  {
    "street": "Via Amerigo Vespucci",
    "number": "36",
    "city": {
      "name": "Villasanta",
      "istat": "108049"
    },
    "latitude": 45.6005743,
    "longitude": 9.3000367
  },
  {
    "street": "Via Amerigo Vespucci",
    "number": "38",
    "city": {
      "name": "Villasanta",
      "istat": "108049"
    },
    "latitude": 45.6005189,
    "longitude": 9.3002459
  },
  {
    "street": "Via Flavio Gioia",
    "number": "38",
    "city": {
      "name": "Villasanta",
      "istat": "108049"
    },
    "latitude": 45.5976213,
    "longitude": 9.2994212
  },
  {
    "street": "Via Thomas Alva Edison",
    "number": "38",
    "city": {
      "name": "Villasanta",
      "istat": "108049"
    },
    "latitude": 45.5997256,
    "longitude": 9.3010694
  },
  {
    "street": "Via Federico Confalonieri",
    "number": "45",
    "city": {
      "name": "Villasanta",
      "istat": "108049"
    },
    "latitude": 45.6046044,
    "longitude": 9.3003512
  },
  {
    "street": "Via Federico Confalonieri",
    "number": "46",
    "city": {
      "name": "Villasanta",
      "istat": "108049"
    },
    "latitude": 45.6047733,
    "longitude": 9.3003579
  },
  {
    "street": "Via Thomas Alva Edison",
    "number": "48",
    "city": {
      "name": "Villasanta",
      "istat": "108049"
    },
    "latitude": 45.5987342,
    "longitude": 9.299104
  },
  {
    "street": "Via Amerigo Vespucci",
    "number": "5",
    "city": {
      "name": "Villasanta",
      "istat": "108049"
    },
    "latitude": 45.6009928,
    "longitude": 9.2990322
  },
  {
    "street": "Via Paolo Bonfanti",
    "number": "5",
    "city": {
      "name": "Villasanta",
      "istat": "108049"
    },
    "latitude": 45.6014591,
    "longitude": 9.3019813
  },
  {
    "street": "Via Federico Confalonieri",
    "number": "59",
    "city": {
      "name": "Villasanta",
      "istat": "108049"
    },
    "latitude": 45.6042535,
    "longitude": 9.3000723
  },
  {
    "street": "Via Cristoforo Colombo",
    "number": "6",
    "city": {
      "name": "Villasanta",
      "istat": "108049"
    },
    "latitude": 45.6010584,
    "longitude": 9.2995942
  },
  {
    "street": "Via Giacomo Matteotti",
    "number": "6a",
    "city": {
      "name": "Villasanta",
      "istat": "108049"
    },
    "latitude": 45.602453,
    "longitude": 9.3004052
  },
  {
    "street": "Via Federico Confalonieri",
    "number": "60",
    "city": {
      "name": "Villasanta",
      "istat": "108049"
    },
    "latitude": 45.6045303,
    "longitude": 9.3000468
  },
  {
    "street": "Via Federico Confalonieri",
    "number": "63",
    "city": {
      "name": "Villasanta",
      "istat": "108049"
    },
    "latitude": 45.6040621,
    "longitude": 9.2999583
  },
  {
    "street": "Via Federico Confalonieri",
    "number": "66",
    "city": {
      "name": "Villasanta",
      "istat": "108049"
    },
    "latitude": 45.6044796,
    "longitude": 9.2999368
  },
  {
    "street": "Piazza Martiri di Belfiore",
    "number": "7",
    "city": {
      "name": "Villasanta",
      "istat": "108049"
    },
    "latitude": 45.6032543,
    "longitude": 9.2996636
  },
  {
    "street": "Via Giacomo Matteotti",
    "number": "7",
    "city": {
      "name": "Villasanta",
      "istat": "108049"
    },
    "latitude": 45.6028058,
    "longitude": 9.299791
  },
  {
    "street": "Via Amerigo Vespucci",
    "number": "7b",
    "city": {
      "name": "Villasanta",
      "istat": "108049"
    },
    "latitude": 45.6008755,
    "longitude": 9.2994104
  },
  {
    "street": "Via Federico Confalonieri",
    "number": "75",
    "city": {
      "name": "Villasanta",
      "istat": "108049"
    },
    "latitude": 45.6038754,
    "longitude": 9.2998349
  },
  {
    "street": "Via Federico Confalonieri",
    "number": "79",
    "city": {
      "name": "Villasanta",
      "istat": "108049"
    },
    "latitude": 45.6032186,
    "longitude": 9.2995187
  },
  {
    "street": "Via Federico Confalonieri",
    "number": "44",
    "city": {
      "name": "Villasanta",
      "istat": "108049"
    },
    "latitude": 45.604824,
    "longitude": 9.3004049
  },
  {
    "street": "Via Monte Grappa",
    "number": "9",
    "city": {
      "name": "Villasanta",
      "istat": "108049"
    },
    "latitude": 45.6011748,
    "longitude": 9.30072
  },
  {
    "street": "Via Federico Confalonieri",
    "number": "91",
    "city": {
      "name": "Villasanta",
      "istat": "108049"
    },
    "latitude": 45.6029962,
    "longitude": 9.2997642
  },
  {
    "street": "Via Thomas Alva Edison",
    "number": "50",
    "city": {
      "name": "Villasanta",
      "istat": "108049"
    },
    "latitude": 45.598783,
    "longitude": 9.2987647
  },
  {
    "street": "Via Federico Confalonieri",
    "number": "54",
    "city": {
      "name": "Villasanta",
      "istat": "108049"
    },
    "latitude": 45.604626,
    "longitude": 9.300193
  },
  {
    "street": "Via Thomas Alva Edison",
    "number": "54a",
    "city": {
      "name": "Villasanta",
      "istat": "108049"
    },
    "latitude": 45.5988553,
    "longitude": 9.2984174
  },
  {
    "street": "Via Federico Confalonieri",
    "number": "55",
    "city": {
      "name": "Villasanta",
      "istat": "108049"
    },
    "latitude": 45.6044243,
    "longitude": 9.3001661
  },
  {
    "street": "Via Thomas Alva Edison",
    "number": "52",
    "city": {
      "name": "Villasanta",
      "istat": "108049"
    },
    "latitude": 45.5988205,
    "longitude": 9.2986453
  },
  {
    "street": "Via Monte Grappa",
    "number": "8",
    "city": {
      "name": "Villasanta",
      "istat": "108049"
    },
    "latitude": 45.6018079,
    "longitude": 9.3008357
  },
  {
    "street": "Via Federico Confalonieri",
    "number": "77",
    "city": {
      "name": "Villasanta",
      "istat": "108049"
    },
    "latitude": 45.6038304,
    "longitude": 9.2998161
  },
  {
    "street": "Via Federico Confalonieri",
    "number": "82",
    "city": {
      "name": "Villasanta",
      "istat": "108049"
    },
    "latitude": 45.6041222,
    "longitude": 9.299855
  },
  {
    "street": "Via Federico Confalonieri",
    "number": "87",
    "city": {
      "name": "Villasanta",
      "istat": "108049"
    },
    "latitude": 45.6030328,
    "longitude": 9.2996126
  },
  {
    "street": "Via Federico Confalonieri",
    "number": "88",
    "city": {
      "name": "Villasanta",
      "istat": "108049"
    },
    "latitude": 45.6040096,
    "longitude": 9.299796
  },
  {
    "street": "Via Federico Confalonieri",
    "number": "85",
    "city": {
      "name": "Villasanta",
      "istat": "108049"
    },
    "latitude": 45.6030582,
    "longitude": 9.2995295
  },
  {
    "street": "Via Giacomo Matteotti",
    "number": "9",
    "city": {
      "name": "Villasanta",
      "istat": "108049"
    },
    "latitude": 45.6027889,
    "longitude": 9.299858
  },
  {
    "street": "Via Giacomo Matteotti",
    "number": "9a",
    "city": {
      "name": "Villasanta",
      "istat": "108049"
    },
    "latitude": 45.6027551,
    "longitude": 9.2999237
  },
  {
    "street": "Via Federico Confalonieri",
    "number": "90",
    "city": {
      "name": "Villasanta",
      "istat": "108049"
    },
    "latitude": 45.6039655,
    "longitude": 9.2997692
  },
  {
    "street": "Via Federico Confalonieri",
    "number": "92",
    "city": {
      "name": "Villasanta",
      "istat": "108049"
    },
    "latitude": 45.6038716,
    "longitude": 9.2997263
  },
  {
    "street": "Via Federico Confalonieri",
    "number": "93",
    "city": {
      "name": "Villasanta",
      "istat": "108049"
    },
    "latitude": 45.6029578,
    "longitude": 9.2998111
  },
  {
    "street": "Via Federico Confalonieri",
    "number": "96",
    "city": {
      "name": "Villasanta",
      "istat": "108049"
    },
    "latitude": 45.6038078,
    "longitude": 9.2996954
  },
  {
    "street": "Via Federico Confalonieri",
    "number": "113",
    "city": {
      "name": "Villasanta",
      "istat": "108049"
    },
    "latitude": 45.6023638,
    "longitude": 9.2989032
  },
  {
    "street": "Piazzetta Battista Erba",
    "number": "13",
    "city": {
      "name": "Villasanta",
      "istat": "108049"
    },
    "latitude": 45.6039128,
    "longitude": 9.3009027
  },
  {
    "street": "Piazzetta Battista Erba",
    "number": "10",
    "city": {
      "name": "Villasanta",
      "istat": "108049"
    },
    "latitude": 45.6040798,
    "longitude": 9.3004039
  },
  {
    "street": "Piazzetta Battista Erba",
    "number": "8",
    "city": {
      "name": "Villasanta",
      "istat": "108049"
    },
    "latitude": 45.604122,
    "longitude": 9.3002027
  },
  {
    "street": "Piazzetta Battista Erba",
    "number": "4",
    "city": {
      "name": "Villasanta",
      "istat": "108049"
    },
    "latitude": 45.6039147,
    "longitude": 9.3005125
  },
  {
    "street": "Piazzetta Battista Erba",
    "number": "5",
    "city": {
      "name": "Villasanta",
      "istat": "108049"
    },
    "latitude": 45.6039306,
    "longitude": 9.3004629
  },
  {
    "street": "Piazzetta Battista Erba",
    "number": "3",
    "city": {
      "name": "Villasanta",
      "istat": "108049"
    },
    "latitude": 45.6038218,
    "longitude": 9.3007257
  },
  {
    "street": "Piazzetta Battista Erba",
    "number": "1",
    "city": {
      "name": "Villasanta",
      "istat": "108049"
    },
    "latitude": 45.603728,
    "longitude": 9.3008357
  },
  {
    "street": "Vicolo Sant'Anastasia",
    "number": "3",
    "city": {
      "name": "Villasanta",
      "istat": "108049"
    },
    "latitude": 45.6038077,
    "longitude": 9.3002349
  },
  {
    "street": "Vicolo Sant'Anastasia",
    "number": "2",
    "city": {
      "name": "Villasanta",
      "istat": "108049"
    },
    "latitude": 45.6038809,
    "longitude": 9.3002201
  },
  {
    "street": "Via Padre Reginaldo Giuliani",
    "number": "4",
    "city": {
      "name": "Villasanta",
      "istat": "108049"
    },
    "latitude": 45.6028305,
    "longitude": 9.3005319
  },
  {
    "street": "Via Padre Reginaldo Giuliani",
    "number": "1",
    "city": {
      "name": "Villasanta",
      "istat": "108049"
    },
    "latitude": 45.6027301,
    "longitude": 9.3002878
  },
  {
    "street": "Via Giacomo Matteotti",
    "number": "24",
    "city": {
      "name": "Villasanta",
      "istat": "108049"
    },
    "latitude": 45.6018646,
    "longitude": 9.3026945
  },
  {
    "street": "Via Giacomo Matteotti",
    "number": "20",
    "city": {
      "name": "Villasanta",
      "istat": "108049"
    },
    "latitude": 45.6019556,
    "longitude": 9.3023645
  },
  {
    "street": "Viale dei Tigli",
    "number": "8",
    "city": {
      "name": "Villasanta",
      "istat": "108049"
    },
    "latitude": 45.6019537,
    "longitude": 9.3016256
  },
  {
    "street": "Viale dei Tigli",
    "number": "12",
    "city": {
      "name": "Villasanta",
      "istat": "108049"
    },
    "latitude": 45.6018158,
    "longitude": 9.3015438
  },
  {
    "street": "Via Edmondo De Amicis",
    "number": "15a",
    "city": {
      "name": "Villasanta",
      "istat": "108049"
    },
    "latitude": 45.6026884,
    "longitude": 9.302783
  },
  {
    "street": "Via Edmondo De Amicis",
    "number": "13b",
    "city": {
      "name": "Villasanta",
      "istat": "108049"
    },
    "latitude": 45.6030477,
    "longitude": 9.303015
  },
  {
    "street": "Via Edmondo De Amicis",
    "number": "13",
    "city": {
      "name": "Villasanta",
      "istat": "108049"
    },
    "latitude": 45.6033226,
    "longitude": 9.3031726
  },
  {
    "street": "Via Ambrogio Villa",
    "number": "10",
    "city": {
      "name": "Villasanta",
      "istat": "108049"
    },
    "latitude": 45.6034803,
    "longitude": 9.3039236
  },
  {
    "street": "Via Ambrogio Villa",
    "number": "11",
    "city": {
      "name": "Villasanta",
      "istat": "108049"
    },
    "latitude": 45.6035413,
    "longitude": 9.3044104
  },
  {
    "street": "Via Ambrogio Villa",
    "number": "9",
    "city": {
      "name": "Villasanta",
      "istat": "108049"
    },
    "latitude": 45.6036032,
    "longitude": 9.3041154
  },
  {
    "street": "Via Thomas Alva Edison",
    "number": "10",
    "city": {
      "name": "Villasanta",
      "istat": "108049"
    },
    "latitude": 45.6037336,
    "longitude": 9.304692
  },
  {
    "street": "Via Vittorio Veneto",
    "number": "9",
    "city": {
      "name": "Villasanta",
      "istat": "108049"
    },
    "latitude": 45.6029248,
    "longitude": 9.301643
  },
  {
    "street": "Via Vittorio Veneto",
    "number": "16",
    "city": {
      "name": "Villasanta",
      "istat": "108049"
    },
    "latitude": 45.6030862,
    "longitude": 9.3015036
  },
  {
    "street": "Via Vittorio Veneto",
    "number": "20",
    "city": {
      "name": "Villasanta",
      "istat": "108049"
    },
    "latitude": 45.6027522,
    "longitude": 9.3013534
  },
  {
    "street": "Via Gerolamo Bestetti",
    "number": "20",
    "city": {
      "name": "Villasanta",
      "istat": "108049"
    },
    "latitude": 45.6029042,
    "longitude": 9.301415
  },
  {
    "street": "Via Gerolamo Bestetti",
    "number": "14",
    "city": {
      "name": "Villasanta",
      "istat": "108049"
    },
    "latitude": 45.6029623,
    "longitude": 9.3012595
  },
  {
    "street": "Via Gerolamo Bestetti",
    "number": "5",
    "city": {
      "name": "Villasanta",
      "istat": "108049"
    },
    "latitude": 45.6031021,
    "longitude": 9.301407
  },
  {
    "street": "Via Thomas Alva Edison",
    "number": "8",
    "city": {
      "name": "Villasanta",
      "istat": "108049"
    },
    "latitude": 45.6039809,
    "longitude": 9.3048625
  },
  {
    "street": "Via Vittorio Veneto",
    "number": "14",
    "city": {
      "name": "Villasanta",
      "istat": "108049"
    },
    "latitude": 45.6031369,
    "longitude": 9.3015357
  },
  {
    "street": "Via Vittorio Veneto",
    "number": "22",
    "city": {
      "name": "Villasanta",
      "istat": "108049"
    },
    "latitude": 45.6027203,
    "longitude": 9.3013319
  },
  {
    "street": "Via Vittorio Veneto",
    "number": "18",
    "city": {
      "name": "Villasanta",
      "istat": "108049"
    },
    "latitude": 45.6028347,
    "longitude": 9.3014016
  },
  {
    "street": "Via Gerolamo Bestetti",
    "number": "18",
    "city": {
      "name": "Villasanta",
      "istat": "108049"
    },
    "latitude": 45.6029314,
    "longitude": 9.3013601
  },
  {
    "street": "Via Gerolamo Bestetti",
    "number": "16",
    "city": {
      "name": "Villasanta",
      "istat": "108049"
    },
    "latitude": 45.6029445,
    "longitude": 9.3013118
  },
  {
    "street": "Via Gerolamo Bestetti",
    "number": "12",
    "city": {
      "name": "Villasanta",
      "istat": "108049"
    },
    "latitude": 45.6029802,
    "longitude": 9.3012085
  },
  {
    "street": "Via Gerolamo Bestetti",
    "number": "3",
    "city": {
      "name": "Villasanta",
      "istat": "108049"
    },
    "latitude": 45.6031247,
    "longitude": 9.3013225
  },
  {
    "street": "Piazzetta Battista Erba",
    "number": "12",
    "city": {
      "name": "Villasanta",
      "istat": "108049"
    },
    "latitude": 45.6039851,
    "longitude": 9.3007056
  },
  {
    "street": "Piazzetta Battista Erba",
    "number": "11",
    "city": {
      "name": "Villasanta",
      "istat": "108049"
    },
    "latitude": 45.6040451,
    "longitude": 9.3004897
  },
  {
    "street": "Piazzetta Battista Erba",
    "number": "9",
    "city": {
      "name": "Villasanta",
      "istat": "108049"
    },
    "latitude": 45.604122,
    "longitude": 9.30031
  },
  {
    "street": "Piazzetta Battista Erba",
    "number": "7",
    "city": {
      "name": "Villasanta",
      "istat": "108049"
    },
    "latitude": 45.6040254,
    "longitude": 9.3003113
  },
  {
    "street": "Piazzetta Battista Erba",
    "number": "6",
    "city": {
      "name": "Villasanta",
      "istat": "108049"
    },
    "latitude": 45.6039456,
    "longitude": 9.3004106
  },
  {
    "street": "Piazzetta Battista Erba",
    "number": "2",
    "city": {
      "name": "Villasanta",
      "istat": "108049"
    },
    "latitude": 45.6037664,
    "longitude": 9.300723
  },
  {
    "street": "Piazza Martiri di Belfiore",
    "number": "5",
    "city": {
      "name": "Villasanta",
      "istat": "108049"
    },
    "latitude": 45.6036651,
    "longitude": 9.3002832
  },
  {
    "street": "Vicolo Sant'Anastasia",
    "number": "1",
    "city": {
      "name": "Villasanta",
      "istat": "108049"
    },
    "latitude": 45.6037055,
    "longitude": 9.3002013
  },
  {
    "street": "Piazza Martiri di Belfiore",
    "number": "4",
    "city": {
      "name": "Villasanta",
      "istat": "108049"
    },
    "latitude": 45.6037899,
    "longitude": 9.3001772
  },
  {
    "street": "Via Padre Reginaldo Giuliani",
    "number": "2",
    "city": {
      "name": "Villasanta",
      "istat": "108049"
    },
    "latitude": 45.6027996,
    "longitude": 9.3005091
  },
  {
    "street": "Via Giacomo Matteotti",
    "number": "26",
    "city": {
      "name": "Villasanta",
      "istat": "108049"
    },
    "latitude": 45.601843,
    "longitude": 9.3027776
  },
  {
    "street": "Via Giacomo Matteotti",
    "number": "22",
    "city": {
      "name": "Villasanta",
      "istat": "108049"
    },
    "latitude": 45.6019349,
    "longitude": 9.3024423
  },
  {
    "street": "Via Giacomo Matteotti",
    "number": "16",
    "city": {
      "name": "Villasanta",
      "istat": "108049"
    },
    "latitude": 45.6021883,
    "longitude": 9.3014687
  },
  {
    "street": "Viale dei Tigli",
    "number": "6",
    "city": {
      "name": "Villasanta",
      "istat": "108049"
    },
    "latitude": 45.6020372,
    "longitude": 9.3016645
  },
  {
    "street": "Viale dei Tigli",
    "number": "10",
    "city": {
      "name": "Villasanta",
      "istat": "108049"
    },
    "latitude": 45.6018786,
    "longitude": 9.301584
  },
  {
    "street": "Via Edmondo De Amicis",
    "number": "13a",
    "city": {
      "name": "Villasanta",
      "istat": "108049"
    },
    "latitude": 45.6031115,
    "longitude": 9.3030713
  },
  {
    "street": "Via Edmondo De Amicis",
    "number": "19",
    "city": {
      "name": "Villasanta",
      "istat": "108049"
    },
    "latitude": 45.6023703,
    "longitude": 9.3025751
  },
  {
    "street": "Via Edmondo De Amicis",
    "number": "24",
    "city": {
      "name": "Villasanta",
      "istat": "108049"
    },
    "latitude": 45.603363,
    "longitude": 9.3030304
  },
  {
    "street": "Via Ambrogio Villa",
    "number": "8",
    "city": {
      "name": "Villasanta",
      "istat": "108049"
    },
    "latitude": 45.6034925,
    "longitude": 9.3038512
  },
  {
    "street": "Via Ambrogio Villa",
    "number": "9a",
    "city": {
      "name": "Villasanta",
      "istat": "108049"
    },
    "latitude": 45.6035685,
    "longitude": 9.304279
  },
  {
    "street": "Via Ambrogio Villa",
    "number": "7",
    "city": {
      "name": "Villasanta",
      "istat": "108049"
    },
    "latitude": 45.6036623,
    "longitude": 9.3038069
  },
  {
    "street": "Via Thomas Alva Edison",
    "number": "12",
    "city": {
      "name": "Villasanta",
      "istat": "108049"
    },
    "latitude": 45.6030921,
    "longitude": 9.3041187
  },
  {
    "street": "Via Thomas Alva Edison",
    "number": "18a",
    "city": {
      "name": "Villasanta",
      "istat": "108049"
    },
    "latitude": 45.6023771,
    "longitude": 9.3034616
  },
  {
    "street": "Via Federico Confalonieri",
    "number": "2",
    "city": {
      "name": "Villasanta",
      "istat": "108049"
    },
    "latitude": 45.6061085,
    "longitude": 9.3014459
  },
  {
    "street": "Via Federico Confalonieri",
    "number": "6",
    "city": {
      "name": "Villasanta",
      "istat": "108049"
    },
    "latitude": 45.6059021,
    "longitude": 9.3012756
  },
  {
    "street": "Via Federico Confalonieri",
    "number": "10",
    "city": {
      "name": "Villasanta",
      "istat": "108049"
    },
    "latitude": 45.6057989,
    "longitude": 9.3011911
  },
  {
    "street": "Via Federico Confalonieri",
    "number": "14",
    "city": {
      "name": "Villasanta",
      "istat": "108049"
    },
    "latitude": 45.6057041,
    "longitude": 9.3011039
  },
  {
    "street": "Via Federico Confalonieri",
    "number": "3",
    "city": {
      "name": "Villasanta",
      "istat": "108049"
    },
    "latitude": 45.6057717,
    "longitude": 9.3014378
  },
  {
    "street": "Via Federico Confalonieri",
    "number": "7",
    "city": {
      "name": "Villasanta",
      "istat": "108049"
    },
    "latitude": 45.6056535,
    "longitude": 9.301348
  },
  {
    "street": "Via Federico Confalonieri",
    "number": "17",
    "city": {
      "name": "Villasanta",
      "istat": "108049"
    },
    "latitude": 45.6054433,
    "longitude": 9.3011643
  },
  {
    "street": "Via Federico Confalonieri",
    "number": "13",
    "city": {
      "name": "Villasanta",
      "istat": "108049"
    },
    "latitude": 45.6055325,
    "longitude": 9.301238
  },
  {
    "street": "Via Federico Confalonieri",
    "number": "9",
    "city": {
      "name": "Villasanta",
      "istat": "108049"
    },
    "latitude": 45.605615,
    "longitude": 9.3013037
  },
  {
    "street": "Via Federico Confalonieri",
    "number": "23",
    "city": {
      "name": "Villasanta",
      "istat": "108049"
    },
    "latitude": 45.6053082,
    "longitude": 9.3010583
  },
  {
    "street": "Via Giuseppe Mazzini",
    "number": "3",
    "city": {
      "name": "Villasanta",
      "istat": "108049"
    },
    "latitude": 45.6063222,
    "longitude": 9.301642
  },
  {
    "street": "Via Giuseppe Mazzini",
    "number": "7",
    "city": {
      "name": "Villasanta",
      "istat": "108049"
    },
    "latitude": 45.606417,
    "longitude": 9.3017024
  },
  {
    "street": "Via Padre Reginaldo Giuliani",
    "number": "8",
    "city": {
      "name": "Villasanta",
      "istat": "108049"
    },
    "latitude": 45.6030491,
    "longitude": 9.300666
  },
  {
    "street": "Viale dei Tigli",
    "number": "14",
    "city": {
      "name": "Villasanta",
      "istat": "108049"
    },
    "latitude": 45.6017454,
    "longitude": 9.3015089
  },
  {
    "street": "Via Edmondo De Amicis",
    "number": "17",
    "city": {
      "name": "Villasanta",
      "istat": "108049"
    },
    "latitude": 45.6025514,
    "longitude": 9.3026891
  },
  {
    "street": "Via Giacomo Matteotti",
    "number": "14",
    "city": {
      "name": "Villasanta",
      "istat": "108049"
    },
    "latitude": 45.6022183,
    "longitude": 9.3013802
  },
  {
    "street": "Via Edmondo De Amicis",
    "number": "15",
    "city": {
      "name": "Villasanta",
      "istat": "108049"
    },
    "latitude": 45.6028685,
    "longitude": 9.3028715
  },
  {
    "street": "Via Federico Confalonieri",
    "number": "4",
    "city": {
      "name": "Villasanta",
      "istat": "108049"
    },
    "latitude": 45.6060504,
    "longitude": 9.3014204
  },
  {
    "street": "Via Federico Confalonieri",
    "number": "8",
    "city": {
      "name": "Villasanta",
      "istat": "108049"
    },
    "latitude": 45.6058383,
    "longitude": 9.3012246
  },
  {
    "street": "Via Federico Confalonieri",
    "number": "12",
    "city": {
      "name": "Villasanta",
      "istat": "108049"
    },
    "latitude": 45.6057539,
    "longitude": 9.3011509
  },
  {
    "street": "Via Federico Confalonieri",
    "number": "1",
    "city": {
      "name": "Villasanta",
      "istat": "108049"
    },
    "latitude": 45.6058449,
    "longitude": 9.3014955
  },
  {
    "street": "Via Federico Confalonieri",
    "number": "5",
    "city": {
      "name": "Villasanta",
      "istat": "108049"
    },
    "latitude": 45.6057032,
    "longitude": 9.3013869
  },
  {
    "street": "Via Federico Confalonieri",
    "number": "19",
    "city": {
      "name": "Villasanta",
      "istat": "108049"
    },
    "latitude": 45.6053955,
    "longitude": 9.301124
  },
  {
    "street": "Via Federico Confalonieri",
    "number": "15",
    "city": {
      "name": "Villasanta",
      "istat": "108049"
    },
    "latitude": 45.6054893,
    "longitude": 9.3012018
  },
  {
    "street": "Via Federico Confalonieri",
    "number": "11",
    "city": {
      "name": "Villasanta",
      "istat": "108049"
    },
    "latitude": 45.6055728,
    "longitude": 9.3012729
  },
  {
    "street": "Via Federico Confalonieri",
    "number": "21",
    "city": {
      "name": "Villasanta",
      "istat": "108049"
    },
    "latitude": 45.6053514,
    "longitude": 9.3010905
  },
  {
    "street": "Via Giosu√® Carducci",
    "number": "3",
    "city": {
      "name": "Villasanta",
      "istat": "108049"
    },
    "latitude": 45.6058899,
    "longitude": 9.3040228
  },
  {
    "street": "Via Giuseppe Garibaldi",
    "number": "26",
    "city": {
      "name": "Villasanta",
      "istat": "108049"
    },
    "latitude": 45.6052794,
    "longitude": 9.3045844
  },
  {
    "street": "Via Thomas Alva Edison",
    "number": "18",
    "city": {
      "name": "Villasanta",
      "istat": "108049"
    },
    "latitude": 45.6026079,
    "longitude": 9.3036654
  },
  {
    "street": "Via Thomas Alva Edison",
    "number": "20",
    "city": {
      "name": "Villasanta",
      "istat": "108049"
    },
    "latitude": 45.6021613,
    "longitude": 9.3032604
  },
  {
    "street": "Via Giacomo Leopardi",
    "number": "4",
    "city": {
      "name": "Villasanta",
      "istat": "108049"
    },
    "latitude": 45.6060933,
    "longitude": 9.3032044
  },
  {
    "street": "Piazza Martiri della Libert√†",
    "number": "16",
    "city": {
      "name": "Villasanta",
      "istat": "108049"
    },
    "latitude": 45.6057865,
    "longitude": 9.3035612
  },
  {
    "street": "Via Giosu√® Carducci",
    "number": "6",
    "city": {
      "name": "Villasanta",
      "istat": "108049"
    },
    "latitude": 45.6059002,
    "longitude": 9.3042173
  },
  {
    "street": "Via Giosu√® Carducci",
    "number": "2",
    "city": {
      "name": "Villasanta",
      "istat": "108049"
    },
    "latitude": 45.6056432,
    "longitude": 9.3040832
  },
  {
    "street": "Via Giuseppe Garibaldi",
    "number": "24",
    "city": {
      "name": "Villasanta",
      "istat": "108049"
    },
    "latitude": 45.6052963,
    "longitude": 9.3045187
  },
  {
    "street": "Via Giuseppe Mazzini",
    "number": "5",
    "city": {
      "name": "Villasanta",
      "istat": "108049"
    },
    "latitude": 45.6063691,
    "longitude": 9.3016715
  },
  {
    "street": "Via Giuseppe Mazzini",
    "number": "9",
    "city": {
      "name": "Villasanta",
      "istat": "108049"
    },
    "latitude": 45.6064611,
    "longitude": 9.3017265
  },
  {
    "street": "Via Giuseppe Mazzini",
    "number": "4",
    "city": {
      "name": "Villasanta",
      "istat": "108049"
    },
    "latitude": 45.606355,
    "longitude": 9.3018513
  },
  {
    "street": "Via Giuseppe Mazzini",
    "number": "2",
    "city": {
      "name": "Villasanta",
      "istat": "108049"
    },
    "latitude": 45.6062284,
    "longitude": 9.3018083
  },
  {
    "street": "Via Giuseppe Garibaldi",
    "number": "2",
    "city": {
      "name": "Villasanta",
      "istat": "108049"
    },
    "latitude": 45.6060051,
    "longitude": 9.3019961
  },
  {
    "street": "Piazza Ammiraglio Manfredo Camperio",
    "number": "4",
    "city": {
      "name": "Villasanta",
      "istat": "108049"
    },
    "latitude": 45.6060248,
    "longitude": 9.3018807
  },
  {
    "street": "Via Giuseppe Garibaldi",
    "number": "4a",
    "city": {
      "name": "Villasanta",
      "istat": "108049"
    },
    "latitude": 45.6058775,
    "longitude": 9.3024313
  },
  {
    "street": "Via Giuseppe Garibaldi",
    "number": "11",
    "city": {
      "name": "Villasanta",
      "istat": "108049"
    },
    "latitude": 45.6060604,
    "longitude": 9.3021905
  },
  {
    "street": "Via Giuseppe Garibaldi",
    "number": "7",
    "city": {
      "name": "Villasanta",
      "istat": "108049"
    },
    "latitude": 45.6061064,
    "longitude": 9.3020591
  },
  {
    "street": "Via Giuseppe Garibaldi",
    "number": "3",
    "city": {
      "name": "Villasanta",
      "istat": "108049"
    },
    "latitude": 45.6061449,
    "longitude": 9.3019263
  },
  {
    "street": "Via Giuseppe Garibaldi",
    "number": "21",
    "city": {
      "name": "Villasanta",
      "istat": "108049"
    },
    "latitude": 45.6058991,
    "longitude": 9.3027243
  },
  {
    "street": "Via Giuseppe Garibaldi",
    "number": "17",
    "city": {
      "name": "Villasanta",
      "istat": "108049"
    },
    "latitude": 45.6059516,
    "longitude": 9.3025285
  },
  {
    "street": "Via Giuseppe Garibaldi",
    "number": "25",
    "city": {
      "name": "Villasanta",
      "istat": "108049"
    },
    "latitude": 45.6058578,
    "longitude": 9.3028758
  },
  {
    "street": "Via Giacomo Leopardi",
    "number": "9",
    "city": {
      "name": "Villasanta",
      "istat": "108049"
    },
    "latitude": 45.6062969,
    "longitude": 9.3030918
  },
  {
    "street": "Via Giacomo Leopardi",
    "number": "5",
    "city": {
      "name": "Villasanta",
      "istat": "108049"
    },
    "latitude": 45.6061186,
    "longitude": 9.3030019
  },
  {
    "street": "Via Giacomo Leopardi",
    "number": "1",
    "city": {
      "name": "Villasanta",
      "istat": "108049"
    },
    "latitude": 45.6059737,
    "longitude": 9.3029556
  },
  {
    "street": "Piazza Martiri della Libert√†",
    "number": "13",
    "city": {
      "name": "Villasanta",
      "istat": "108049"
    },
    "latitude": 45.6058625,
    "longitude": 9.3032708
  },
  {
    "street": "Via Edmondo De Amicis",
    "number": "1",
    "city": {
      "name": "Villasanta",
      "istat": "108049"
    },
    "latitude": 45.6052756,
    "longitude": 9.3044074
  },
  {
    "street": "Via Giuseppe Garibaldi",
    "number": "22",
    "city": {
      "name": "Villasanta",
      "istat": "108049"
    },
    "latitude": 45.6053169,
    "longitude": 9.3044543
  },
  {
    "street": "Via Giuseppe Garibaldi",
    "number": "30",
    "city": {
      "name": "Villasanta",
      "istat": "108049"
    },
    "latitude": 45.6052447,
    "longitude": 9.3047158
  },
  {
    "street": "Via Giuseppe Garibaldi",
    "number": "40",
    "city": {
      "name": "Villasanta",
      "istat": "108049"
    },
    "latitude": 45.6050964,
    "longitude": 9.3053019
  },
  {
    "street": "Via Giacomo Puccini",
    "number": "10",
    "city": {
      "name": "Villasanta",
      "istat": "108049"
    },
    "latitude": 45.6034701,
    "longitude": 9.3068386
  },
  {
    "street": "Via Giuseppe Mazzini",
    "number": "1",
    "city": {
      "name": "Villasanta",
      "istat": "108049"
    },
    "latitude": 45.6062462,
    "longitude": 9.3015629
  },
  {
    "street": "Via Giuseppe Garibaldi",
    "number": "4",
    "city": {
      "name": "Villasanta",
      "istat": "108049"
    },
    "latitude": 45.6059216,
    "longitude": 9.3023186
  },
  {
    "street": "Via Giuseppe Garibaldi",
    "number": "9",
    "city": {
      "name": "Villasanta",
      "istat": "108049"
    },
    "latitude": 45.6060839,
    "longitude": 9.3021262
  },
  {
    "street": "Via Giuseppe Garibaldi",
    "number": "5",
    "city": {
      "name": "Villasanta",
      "istat": "108049"
    },
    "latitude": 45.6061261,
    "longitude": 9.3019894
  },
  {
    "street": "Via Giuseppe Garibaldi",
    "number": "1",
    "city": {
      "name": "Villasanta",
      "istat": "108049"
    },
    "latitude": 45.6061683,
    "longitude": 9.3018553
  },
  {
    "street": "Via Giuseppe Garibaldi",
    "number": "19",
    "city": {
      "name": "Villasanta",
      "istat": "108049"
    },
    "latitude": 45.6059244,
    "longitude": 9.3026264
  },
  {
    "street": "Via Giuseppe Garibaldi",
    "number": "6",
    "city": {
      "name": "Villasanta",
      "istat": "108049"
    },
    "latitude": 45.6057959,
    "longitude": 9.3026747
  },
  {
    "street": "Via Giacomo Leopardi",
    "number": "7",
    "city": {
      "name": "Villasanta",
      "istat": "108049"
    },
    "latitude": 45.6061514,
    "longitude": 9.3030234
  },
  {
    "street": "Via Giacomo Leopardi",
    "number": "2",
    "city": {
      "name": "Villasanta",
      "istat": "108049"
    },
    "latitude": 45.6060445,
    "longitude": 9.3031776
  },
  {
    "street": "Via Giacomo Leopardi",
    "number": "3",
    "city": {
      "name": "Villasanta",
      "istat": "108049"
    },
    "latitude": 45.6060126,
    "longitude": 9.3029442
  },
  {
    "street": "Piazza Martiri della Libert√†",
    "number": "20",
    "city": {
      "name": "Villasanta",
      "istat": "108049"
    },
    "latitude": 45.6058794,
    "longitude": 9.3036718
  },
  {
    "street": "Piazza Martiri della Libert√†",
    "number": "14",
    "city": {
      "name": "Villasanta",
      "istat": "108049"
    },
    "latitude": 45.6059882,
    "longitude": 9.3035135
  },
  {
    "street": "Piazza Martiri della Libert√†",
    "number": "18",
    "city": {
      "name": "Villasanta",
      "istat": "108049"
    },
    "latitude": 45.6056762,
    "longitude": 9.3036611
  },
  {
    "street": "Piazza Martiri della Libert√†",
    "number": "24a",
    "city": {
      "name": "Villasanta",
      "istat": "108049"
    },
    "latitude": 45.6057264,
    "longitude": 9.3037637
  },
  {
    "street": "Piazza Martiri della Libert√†",
    "number": "17",
    "city": {
      "name": "Villasanta",
      "istat": "108049"
    },
    "latitude": 45.6057367,
    "longitude": 9.3035907
  },
  {
    "street": "Piazza Martiri della Libert√†",
    "number": "15",
    "city": {
      "name": "Villasanta",
      "istat": "108049"
    },
    "latitude": 45.6058442,
    "longitude": 9.3036
  },
  {
    "street": "Piazza Martiri della Libert√†",
    "number": "24",
    "city": {
      "name": "Villasanta",
      "istat": "108049"
    },
    "latitude": 45.6058095,
    "longitude": 9.3039762
  },
  {
    "street": "Piazza Martiri della Libert√†",
    "number": "22",
    "city": {
      "name": "Villasanta",
      "istat": "108049"
    },
    "latitude": 45.6058496,
    "longitude": 9.3037881
  },
  {
    "street": "Via Giosu√® Carducci",
    "number": "4",
    "city": {
      "name": "Villasanta",
      "istat": "108049"
    },
    "latitude": 45.6058139,
    "longitude": 9.304165
  },
  {
    "street": "Via Fratelli Camperio",
    "number": "3",
    "city": {
      "name": "Villasanta",
      "istat": "108049"
    },
    "latitude": 45.6051579,
    "longitude": 9.3015542
  },
  {
    "street": "Via Fratelli Camperio",
    "number": "2",
    "city": {
      "name": "Villasanta",
      "istat": "108049"
    },
    "latitude": 45.6051597,
    "longitude": 9.3010875
  },
  {
    "street": "Piazza Martiri della Libert√†",
    "number": "2",
    "city": {
      "name": "Villasanta",
      "istat": "108049"
    },
    "latitude": 45.6054281,
    "longitude": 9.3037905
  },
  {
    "street": "Piazza Martiri della Libert√†",
    "number": "4",
    "city": {
      "name": "Villasanta",
      "istat": "108049"
    },
    "latitude": 45.6053577,
    "longitude": 9.3037556
  },
  {
    "street": "Piazza Martiri della Libert√†",
    "number": "25",
    "city": {
      "name": "Villasanta",
      "istat": "108049"
    },
    "latitude": 45.6056645,
    "longitude": 9.3037422
  },
  {
    "street": "Piazza Martiri della Libert√†",
    "number": "19",
    "city": {
      "name": "Villasanta",
      "istat": "108049"
    },
    "latitude": 45.6058437,
    "longitude": 9.3037107
  },
  {
    "street": "Piazza Martiri della Libert√†",
    "number": "23",
    "city": {
      "name": "Villasanta",
      "istat": "108049"
    },
    "latitude": 45.6058179,
    "longitude": 9.3039306
  },
  {
    "street": "Piazza Martiri della Libert√†",
    "number": "21",
    "city": {
      "name": "Villasanta",
      "istat": "108049"
    },
    "latitude": 45.6058608,
    "longitude": 9.3037432
  },
  {
    "street": "Via Fratelli Camperio",
    "number": "5",
    "city": {
      "name": "Villasanta",
      "istat": "108049"
    },
    "latitude": 45.6050772,
    "longitude": 9.3019217
  },
  {
    "street": "Via Fratelli Camperio",
    "number": "1",
    "city": {
      "name": "Villasanta",
      "istat": "108049"
    },
    "latitude": 45.6052048,
    "longitude": 9.301357
  },
  {
    "street": "Via Fratelli Camperio",
    "number": "4",
    "city": {
      "name": "Villasanta",
      "istat": "108049"
    },
    "latitude": 45.6050997,
    "longitude": 9.3013155
  },
  {
    "street": "Piazza Martiri della Libert√†",
    "number": "1",
    "city": {
      "name": "Villasanta",
      "istat": "108049"
    },
    "latitude": 45.6054665,
    "longitude": 9.3038133
  },
  {
    "street": "Piazza Martiri della Libert√†",
    "number": "3",
    "city": {
      "name": "Villasanta",
      "istat": "108049"
    },
    "latitude": 45.6053924,
    "longitude": 9.303773
  },
  {
    "street": "Piazza Martiri della Libert√†",
    "number": "5",
    "city": {
      "name": "Villasanta",
      "istat": "108049"
    },
    "latitude": 45.6053136,
    "longitude": 9.3037355
  },
  {
    "street": "Via Guglielmo Marconi",
    "number": "3",
    "city": {
      "name": "Villasanta",
      "istat": "108049"
    },
    "latitude": 45.6051241,
    "longitude": 9.3035974
  },
  {
    "street": "Via Guglielmo Marconi",
    "number": "5",
    "city": {
      "name": "Villasanta",
      "istat": "108049"
    },
    "latitude": 45.6049271,
    "longitude": 9.3035035
  },
  {
    "street": "Piazza Martiri della Libert√†",
    "number": "11",
    "city": {
      "name": "Villasanta",
      "istat": "108049"
    },
    "latitude": 45.6055336,
    "longitude": 9.3028718
  },
  {
    "street": "Via Edmondo De Amicis",
    "number": "7",
    "city": {
      "name": "Villasanta",
      "istat": "108049"
    },
    "latitude": 45.6047858,
    "longitude": 9.3040936
  },
  {
    "street": "Via Edmondo De Amicis",
    "number": "2",
    "city": {
      "name": "Villasanta",
      "istat": "108049"
    },
    "latitude": 45.6052747,
    "longitude": 9.3042277
  },
  {
    "street": "Via Edmondo De Amicis",
    "number": "6",
    "city": {
      "name": "Villasanta",
      "istat": "108049"
    },
    "latitude": 45.6050129,
    "longitude": 9.3040855
  },
  {
    "street": "Via Edmondo De Amicis",
    "number": "3",
    "city": {
      "name": "Villasanta",
      "istat": "108049"
    },
    "latitude": 45.6050692,
    "longitude": 9.3042612
  },
  {
    "street": "Via Edmondo De Amicis",
    "number": "10",
    "city": {
      "name": "Villasanta",
      "istat": "108049"
    },
    "latitude": 45.6048375,
    "longitude": 9.3039903
  },
  {
    "street": "Via Fratelli Camperio",
    "number": "14",
    "city": {
      "name": "Villasanta",
      "istat": "108049"
    },
    "latitude": 45.6045555,
    "longitude": 9.3036993
  },
  {
    "street": "Via Fratelli Camperio",
    "number": "15",
    "city": {
      "name": "Villasanta",
      "istat": "108049"
    },
    "latitude": 45.6046719,
    "longitude": 9.3036202
  },
  {
    "street": "Via Giuseppe Garibaldi",
    "number": "14",
    "city": {
      "name": "Villasanta",
      "istat": "108049"
    },
    "latitude": 45.6054056,
    "longitude": 9.3040949
  },
  {
    "street": "Via Giuseppe Garibaldi",
    "number": "10",
    "city": {
      "name": "Villasanta",
      "istat": "108049"
    },
    "latitude": 45.6054469,
    "longitude": 9.3039447
  },
  {
    "street": "Via Giuseppe Garibaldi",
    "number": "20",
    "city": {
      "name": "Villasanta",
      "istat": "108049"
    },
    "latitude": 45.6053305,
    "longitude": 9.3042384
  },
  {
    "street": "Via Giuseppe Garibaldi",
    "number": "33",
    "city": {
      "name": "Villasanta",
      "istat": "108049"
    },
    "latitude": 45.6054319,
    "longitude": 9.304516
  },
  {
    "street": "Via Giuseppe Garibaldi",
    "number": "29",
    "city": {
      "name": "Villasanta",
      "istat": "108049"
    },
    "latitude": 45.6055623,
    "longitude": 9.3040587
  },
  {
    "street": "Via Giuseppe Garibaldi",
    "number": "35",
    "city": {
      "name": "Villasanta",
      "istat": "108049"
    },
    "latitude": 45.6053591,
    "longitude": 9.3048204
  },
  {
    "street": "Piazza Martiri della Libert√†",
    "number": "6",
    "city": {
      "name": "Villasanta",
      "istat": "108049"
    },
    "latitude": 45.6052742,
    "longitude": 9.3037073
  },
  {
    "street": "Via Guglielmo Marconi",
    "number": "1a",
    "city": {
      "name": "Villasanta",
      "istat": "108049"
    },
    "latitude": 45.6052198,
    "longitude": 9.3036658
  },
  {
    "street": "Via Guglielmo Marconi",
    "number": "2",
    "city": {
      "name": "Villasanta",
      "istat": "108049"
    },
    "latitude": 45.6052048,
    "longitude": 9.3034539
  },
  {
    "street": "Via Guglielmo Marconi",
    "number": "4",
    "city": {
      "name": "Villasanta",
      "istat": "108049"
    },
    "latitude": 45.6049702,
    "longitude": 9.3033037
  },
  {
    "street": "Via Edmondo De Amicis",
    "number": "9",
    "city": {
      "name": "Villasanta",
      "istat": "108049"
    },
    "latitude": 45.604753,
    "longitude": 9.3040708
  },
  {
    "street": "Via Edmondo De Amicis",
    "number": "5",
    "city": {
      "name": "Villasanta",
      "istat": "108049"
    },
    "latitude": 45.6049266,
    "longitude": 9.3041874
  },
  {
    "street": "Via Edmondo De Amicis",
    "number": "4",
    "city": {
      "name": "Villasanta",
      "istat": "108049"
    },
    "latitude": 45.6050683,
    "longitude": 9.3041204
  },
  {
    "street": "Via Edmondo De Amicis",
    "number": "12",
    "city": {
      "name": "Villasanta",
      "istat": "108049"
    },
    "latitude": 45.6047648,
    "longitude": 9.3039179
  },
  {
    "street": "Via Edmondo De Amicis",
    "number": "14",
    "city": {
      "name": "Villasanta",
      "istat": "108049"
    },
    "latitude": 45.6047235,
    "longitude": 9.3038978
  },
  {
    "street": "Via Edmondo De Amicis",
    "number": "14a",
    "city": {
      "name": "Villasanta",
      "istat": "108049"
    },
    "latitude": 45.6046766,
    "longitude": 9.3038723
  },
  {
    "street": "Via Giuseppe Garibaldi",
    "number": "16",
    "city": {
      "name": "Villasanta",
      "istat": "108049"
    },
    "latitude": 45.6053887,
    "longitude": 9.3041579
  },
  {
    "street": "Via Giuseppe Garibaldi",
    "number": "12",
    "city": {
      "name": "Villasanta",
      "istat": "108049"
    },
    "latitude": 45.6054272,
    "longitude": 9.3040225
  },
  {
    "street": "Via Giuseppe Garibaldi",
    "number": "8",
    "city": {
      "name": "Villasanta",
      "istat": "108049"
    },
    "latitude": 45.6054647,
    "longitude": 9.3038844
  },
  {
    "street": "Via Giuseppe Garibaldi",
    "number": "18",
    "city": {
      "name": "Villasanta",
      "istat": "108049"
    },
    "latitude": 45.605369,
    "longitude": 9.3042196
  },
  {
    "street": "Via Giuseppe Garibaldi",
    "number": "31",
    "city": {
      "name": "Villasanta",
      "istat": "108049"
    },
    "latitude": 45.6054713,
    "longitude": 9.3044275
  },
  {
    "street": "Via Giuseppe Garibaldi",
    "number": "28",
    "city": {
      "name": "Villasanta",
      "istat": "108049"
    },
    "latitude": 45.6052616,
    "longitude": 9.3046515
  },
  {
    "street": "Via Giuseppe Garibaldi",
    "number": "32",
    "city": {
      "name": "Villasanta",
      "istat": "108049"
    },
    "latitude": 45.6052269,
    "longitude": 9.3047883
  },
  {
    "street": "Via Giuseppe Garibaldi",
    "number": "36",
    "city": {
      "name": "Villasanta",
      "istat": "108049"
    },
    "latitude": 45.6051527,
    "longitude": 9.3050565
  },
  {
    "street": "Via Giuseppe Garibaldi",
    "number": "45",
    "city": {
      "name": "Villasanta",
      "istat": "108049"
    },
    "latitude": 45.6051987,
    "longitude": 9.3053395
  },
  {
    "street": "Via Giuseppe Garibaldi",
    "number": "42",
    "city": {
      "name": "Villasanta",
      "istat": "108049"
    },
    "latitude": 45.6050759,
    "longitude": 9.3053814
  },
  {
    "street": "Via Achille Grandi",
    "number": "7",
    "city": {
      "name": "Villasanta",
      "istat": "108049"
    },
    "latitude": 45.6054305,
    "longitude": 9.3077377
  },
  {
    "street": "Via Achille Grandi",
    "number": "3",
    "city": {
      "name": "Villasanta",
      "istat": "108049"
    },
    "latitude": 45.6053208,
    "longitude": 9.3075848
  },
  {
    "street": "Via Achille Grandi",
    "number": "4",
    "city": {
      "name": "Villasanta",
      "istat": "108049"
    },
    "latitude": 45.6050187,
    "longitude": 9.3078088
  },
  {
    "street": "Via Giuseppe Garibaldi",
    "number": "75",
    "city": {
      "name": "Villasanta",
      "istat": "108049"
    },
    "latitude": 45.6044219,
    "longitude": 9.3082822
  },
  {
    "street": "Via Giuseppe Garibaldi",
    "number": "73a",
    "city": {
      "name": "Villasanta",
      "istat": "108049"
    },
    "latitude": 45.6045317,
    "longitude": 9.3078396
  },
  {
    "street": "Via Giuseppe Garibaldi",
    "number": "71a",
    "city": {
      "name": "Villasanta",
      "istat": "108049"
    },
    "latitude": 45.604603,
    "longitude": 9.3075915
  },
  {
    "street": "Via Giuseppe Garibaldi",
    "number": "69",
    "city": {
      "name": "Villasanta",
      "istat": "108049"
    },
    "latitude": 45.6052987,
    "longitude": 9.3071463
  },
  {
    "street": "Via Giuseppe Garibaldi",
    "number": "50",
    "city": {
      "name": "Villasanta",
      "istat": "108049"
    },
    "latitude": 45.6048165,
    "longitude": 9.3064221
  },
  {
    "street": "Via Giuseppe Garibaldi",
    "number": "56",
    "city": {
      "name": "Villasanta",
      "istat": "108049"
    },
    "latitude": 45.6045242,
    "longitude": 9.3065615
  },
  {
    "street": "Via Giuseppe Garibaldi",
    "number": "54",
    "city": {
      "name": "Villasanta",
      "istat": "108049"
    },
    "latitude": 45.6044745,
    "longitude": 9.306528
  },
  {
    "street": "Via Giuseppe Garibaldi",
    "number": "52",
    "city": {
      "name": "Villasanta",
      "istat": "108049"
    },
    "latitude": 45.604452,
    "longitude": 9.3064717
  },
  {
    "street": "Via Giuseppe Garibaldi",
    "number": "58",
    "city": {
      "name": "Villasanta",
      "istat": "108049"
    },
    "latitude": 45.60474,
    "longitude": 9.3066863
  },
  {
    "street": "Via Giuseppe Garibaldi",
    "number": "60",
    "city": {
      "name": "Villasanta",
      "istat": "108049"
    },
    "latitude": 45.6046968,
    "longitude": 9.30687
  },
  {
    "street": "Via Giuseppe Garibaldi",
    "number": "71",
    "city": {
      "name": "Villasanta",
      "istat": "108049"
    },
    "latitude": 45.6047334,
    "longitude": 9.3070899
  },
  {
    "street": "Via Giuseppe Garibaldi",
    "number": "64",
    "city": {
      "name": "Villasanta",
      "istat": "108049"
    },
    "latitude": 45.6045833,
    "longitude": 9.3072844
  },
  {
    "street": "Via Giuseppe Garibaldi",
    "number": "66",
    "city": {
      "name": "Villasanta",
      "istat": "108049"
    },
    "latitude": 45.6044914,
    "longitude": 9.3076063
  },
  {
    "street": "Via Giacomo Puccini",
    "number": "4e",
    "city": {
      "name": "Villasanta",
      "istat": "108049"
    },
    "latitude": 45.6039224,
    "longitude": 9.3065154
  },
  {
    "street": "Via Giacomo Puccini",
    "number": "1",
    "city": {
      "name": "Villasanta",
      "istat": "108049"
    },
    "latitude": 45.6042339,
    "longitude": 9.3074367
  },
  {
    "street": "Via Giacomo Puccini",
    "number": "1a",
    "city": {
      "name": "Villasanta",
      "istat": "108049"
    },
    "latitude": 45.6039599,
    "longitude": 9.3073187
  },
  {
    "street": "Via Giacomo Puccini",
    "number": "5",
    "city": {
      "name": "Villasanta",
      "istat": "108049"
    },
    "latitude": 45.6035977,
    "longitude": 9.3071122
  },
  {
    "street": "Via Giacomo Puccini",
    "number": "8",
    "city": {
      "name": "Villasanta",
      "istat": "108049"
    },
    "latitude": 45.6036259,
    "longitude": 9.3069164
  },
  {
    "street": "Via Giacomo Puccini",
    "number": "9",
    "city": {
      "name": "Villasanta",
      "istat": "108049"
    },
    "latitude": 45.6031286,
    "longitude": 9.3068278
  },
  {
    "street": "Via Giuseppe Garibaldi",
    "number": "34",
    "city": {
      "name": "Villasanta",
      "istat": "108049"
    },
    "latitude": 45.6051996,
    "longitude": 9.3048768
  },
  {
    "street": "Via Giuseppe Garibaldi",
    "number": "41",
    "city": {
      "name": "Villasanta",
      "istat": "108049"
    },
    "latitude": 45.6052597,
    "longitude": 9.3051356
  },
  {
    "street": "Via Thomas Alva Edison",
    "number": "2",
    "city": {
      "name": "Villasanta",
      "istat": "108049"
    },
    "latitude": 45.604998,
    "longitude": 9.3054967
  },
  {
    "street": "Via Giuseppe Garibaldi",
    "number": "47",
    "city": {
      "name": "Villasanta",
      "istat": "108049"
    },
    "latitude": 45.6051599,
    "longitude": 9.3054987
  },
  {
    "street": "Via Achille Grandi",
    "number": "5",
    "city": {
      "name": "Villasanta",
      "istat": "108049"
    },
    "latitude": 45.6053958,
    "longitude": 9.3076156
  },
  {
    "street": "Via Achille Grandi",
    "number": "1",
    "city": {
      "name": "Villasanta",
      "istat": "108049"
    },
    "latitude": 45.6050965,
    "longitude": 9.3076022
  },
  {
    "street": "Via Achille Grandi",
    "number": "2",
    "city": {
      "name": "Villasanta",
      "istat": "108049"
    },
    "latitude": 45.6049417,
    "longitude": 9.3077591
  },
  {
    "street": "Via Giuseppe Garibaldi",
    "number": "73b",
    "city": {
      "name": "Villasanta",
      "istat": "108049"
    },
    "latitude": 45.6044604,
    "longitude": 9.3081293
  },
  {
    "street": "Via Giuseppe Garibaldi",
    "number": "73",
    "city": {
      "name": "Villasanta",
      "istat": "108049"
    },
    "latitude": 45.6045655,
    "longitude": 9.3077109
  },
  {
    "street": "Via Giuseppe Garibaldi",
    "number": "67",
    "city": {
      "name": "Villasanta",
      "istat": "108049"
    },
    "latitude": 45.6048765,
    "longitude": 9.3067855
  },
  {
    "street": "Via Giacomo Puccini",
    "number": "4f",
    "city": {
      "name": "Villasanta",
      "istat": "108049"
    },
    "latitude": 45.6039074,
    "longitude": 9.306569
  },
  {
    "street": "Via Giacomo Puccini",
    "number": "4d",
    "city": {
      "name": "Villasanta",
      "istat": "108049"
    },
    "latitude": 45.6039393,
    "longitude": 9.3064644
  },
  {
    "street": "Via Giacomo Puccini",
    "number": "4c",
    "city": {
      "name": "Villasanta",
      "istat": "108049"
    },
    "latitude": 45.6039543,
    "longitude": 9.3064148
  },
  {
    "street": "Via Giacomo Puccini",
    "number": "4b",
    "city": {
      "name": "Villasanta",
      "istat": "108049"
    },
    "latitude": 45.6040978,
    "longitude": 9.3064617
  },
  {
    "street": "Via Giacomo Puccini",
    "number": "4a",
    "city": {
      "name": "Villasanta",
      "istat": "108049"
    },
    "latitude": 45.6038811,
    "longitude": 9.3070545
  },
  {
    "street": "Via Giacomo Puccini",
    "number": "2",
    "city": {
      "name": "Villasanta",
      "istat": "108049"
    },
    "latitude": 45.6043333,
    "longitude": 9.3073053
  },
  {
    "street": "Via Giacomo Puccini",
    "number": "4",
    "city": {
      "name": "Villasanta",
      "istat": "108049"
    },
    "latitude": 45.604125,
    "longitude": 9.3071873
  },
  {
    "street": "Via Giacomo Puccini",
    "number": "3",
    "city": {
      "name": "Villasanta",
      "istat": "108049"
    },
    "latitude": 45.6037891,
    "longitude": 9.3072087
  },
  {
    "street": "Via Giacomo Puccini",
    "number": "6",
    "city": {
      "name": "Villasanta",
      "istat": "108049"
    },
    "latitude": 45.6037948,
    "longitude": 9.3070156
  },
  {
    "street": "Via Giacomo Puccini",
    "number": "7",
    "city": {
      "name": "Villasanta",
      "istat": "108049"
    },
    "latitude": 45.6034345,
    "longitude": 9.3069834
  },
  {
    "street": "Via Francesco Petrarca",
    "number": "5",
    "city": {
      "name": "Villasanta",
      "istat": "108049"
    },
    "latitude": 45.603373,
    "longitude": 9.3058938
  },
  {
    "street": "Via Francesco Petrarca",
    "number": "2",
    "city": {
      "name": "Villasanta",
      "istat": "108049"
    },
    "latitude": 45.6030052,
    "longitude": 9.3057825
  },
  {
    "street": "Via Giuseppe Mazzini",
    "number": "65",
    "city": {
      "name": "Villasanta",
      "istat": "108049"
    },
    "latitude": 45.6079365,
    "longitude": 9.3030156
  },
  {
    "street": "Via Giuseppe Mazzini",
    "number": "63",
    "city": {
      "name": "Villasanta",
      "istat": "108049"
    },
    "latitude": 45.6078755,
    "longitude": 9.3029646
  },
  {
    "street": "Via Giuseppe Mazzini",
    "number": "59",
    "city": {
      "name": "Villasanta",
      "istat": "108049"
    },
    "latitude": 45.6077817,
    "longitude": 9.3028694
  },
  {
    "street": "Via Giuseppe Mazzini",
    "number": "53",
    "city": {
      "name": "Villasanta",
      "istat": "108049"
    },
    "latitude": 45.6075946,
    "longitude": 9.3026113
  },
  {
    "street": "Via Giuseppe Mazzini",
    "number": "49",
    "city": {
      "name": "Villasanta",
      "istat": "108049"
    },
    "latitude": 45.607504,
    "longitude": 9.3025261
  },
  {
    "street": "Via Giuseppe Mazzini",
    "number": "44",
    "city": {
      "name": "Villasanta",
      "istat": "108049"
    },
    "latitude": 45.6074421,
    "longitude": 9.3027111
  },
  {
    "street": "Via Giuseppe Mazzini",
    "number": "15",
    "city": {
      "name": "Villasanta",
      "istat": "108049"
    },
    "latitude": 45.6066122,
    "longitude": 9.3018394
  },
  {
    "street": "Via Giuseppe Mazzini",
    "number": "11",
    "city": {
      "name": "Villasanta",
      "istat": "108049"
    },
    "latitude": 45.6065137,
    "longitude": 9.3017683
  },
  {
    "street": "Via Giuseppe Mazzini",
    "number": "6",
    "city": {
      "name": "Villasanta",
      "istat": "108049"
    },
    "latitude": 45.6064039,
    "longitude": 9.3018864
  },
  {
    "street": "Via Giuseppe Mazzini",
    "number": "43",
    "city": {
      "name": "Villasanta",
      "istat": "108049"
    },
    "latitude": 45.6072924,
    "longitude": 9.3023396
  },
  {
    "street": "Via della Resega",
    "number": "4a",
    "city": {
      "name": "Villasanta",
      "istat": "108049"
    },
    "latitude": 45.6068379,
    "longitude": 9.3013526
  },
  {
    "street": "Via Cesare Battisti",
    "number": "2",
    "city": {
      "name": "Villasanta",
      "istat": "108049"
    },
    "latitude": 45.6062327,
    "longitude": 9.3014813
  },
  {
    "street": "Via Giuseppe Mazzini",
    "number": "55",
    "city": {
      "name": "Villasanta",
      "istat": "108049"
    },
    "latitude": 45.607686,
    "longitude": 9.3027795
  },
  {
    "street": "Via Giovanni Pascoli",
    "number": "1",
    "city": {
      "name": "Villasanta",
      "istat": "108049"
    },
    "latitude": 45.6068834,
    "longitude": 9.3051513
  },
  {
    "street": "Via Giuseppe Mazzini",
    "number": "30",
    "city": {
      "name": "Villasanta",
      "istat": "108049"
    },
    "latitude": 45.606829,
    "longitude": 9.3021566
  },
  {
    "street": "Via Giuseppe Mazzini",
    "number": "13",
    "city": {
      "name": "Villasanta",
      "istat": "108049"
    },
    "latitude": 45.6065663,
    "longitude": 9.3018019
  },
  {
    "street": "Via Giuseppe Mazzini",
    "number": "47",
    "city": {
      "name": "Villasanta",
      "istat": "108049"
    },
    "latitude": 45.6074605,
    "longitude": 9.3024853
  },
  {
    "street": "Via Giuseppe Mazzini",
    "number": "46",
    "city": {
      "name": "Villasanta",
      "istat": "108049"
    },
    "latitude": 45.6074834,
    "longitude": 9.3027567
  },
  {
    "street": "Via della Resega",
    "number": "6",
    "city": {
      "name": "Villasanta",
      "istat": "108049"
    },
    "latitude": 45.6068848,
    "longitude": 9.3013486
  },
  {
    "street": "Via Alessandro Manzoni",
    "number": "20",
    "city": {
      "name": "Villasanta",
      "istat": "108049"
    },
    "latitude": 45.6076954,
    "longitude": 9.3073037
  },
  {
    "street": "Via Alessandro Manzoni",
    "number": "28",
    "city": {
      "name": "Villasanta",
      "istat": "108049"
    },
    "latitude": 45.6073529,
    "longitude": 9.3072729
  },
  {
    "street": "Via Alessandro Manzoni",
    "number": "34",
    "city": {
      "name": "Villasanta",
      "istat": "108049"
    },
    "latitude": 45.6073633,
    "longitude": 9.3074057
  },
  {
    "street": "Via Alessandro Manzoni",
    "number": "30",
    "city": {
      "name": "Villasanta",
      "istat": "108049"
    },
    "latitude": 45.6073182,
    "longitude": 9.3072608
  },
  {
    "street": "Via Alessandro Volta",
    "number": "27",
    "city": {
      "name": "Villasanta",
      "istat": "108049"
    },
    "latitude": 45.6071587,
    "longitude": 9.3066547
  },
  {
    "street": "Via Alessandro Volta",
    "number": "23b",
    "city": {
      "name": "Villasanta",
      "istat": "108049"
    },
    "latitude": 45.607034,
    "longitude": 9.3065809
  },
  {
    "street": "Via Alessandro Volta",
    "number": "23",
    "city": {
      "name": "Villasanta",
      "istat": "108049"
    },
    "latitude": 45.6069589,
    "longitude": 9.3065474
  },
  {
    "street": "Via Giuseppe Mazzini",
    "number": "36",
    "city": {
      "name": "Villasanta",
      "istat": "108049"
    },
    "latitude": 45.6070269,
    "longitude": 9.3023148
  },
  {
    "street": "Via Giuseppe Mazzini",
    "number": "32",
    "city": {
      "name": "Villasanta",
      "istat": "108049"
    },
    "latitude": 45.6068768,
    "longitude": 9.3021941
  },
  {
    "street": "Via Giuseppe Mazzini",
    "number": "20",
    "city": {
      "name": "Villasanta",
      "istat": "108049"
    },
    "latitude": 45.6066432,
    "longitude": 9.3020231
  },
  {
    "street": "Via Giuseppe Mazzini",
    "number": "24",
    "city": {
      "name": "Villasanta",
      "istat": "108049"
    },
    "latitude": 45.6067145,
    "longitude": 9.3020741
  },
  {
    "street": "Via Giuseppe Mazzini",
    "number": "28",
    "city": {
      "name": "Villasanta",
      "istat": "108049"
    },
    "latitude": 45.6067811,
    "longitude": 9.3021157
  },
  {
    "street": "Via Giuseppe Mazzini",
    "number": "14",
    "city": {
      "name": "Villasanta",
      "istat": "108049"
    },
    "latitude": 45.6065315,
    "longitude": 9.3019521
  },
  {
    "street": "Via Giuseppe Mazzini",
    "number": "18",
    "city": {
      "name": "Villasanta",
      "istat": "108049"
    },
    "latitude": 45.6066019,
    "longitude": 9.3019977
  },
  {
    "street": "Via Giuseppe Mazzini",
    "number": "37",
    "city": {
      "name": "Villasanta",
      "istat": "108049"
    },
    "latitude": 45.6071639,
    "longitude": 9.3022847
  },
  {
    "street": "Via Giuseppe Mazzini",
    "number": "31",
    "city": {
      "name": "Villasanta",
      "istat": "108049"
    },
    "latitude": 45.6070457,
    "longitude": 9.3021774
  },
  {
    "street": "Via Giuseppe Mazzini",
    "number": "25a",
    "city": {
      "name": "Villasanta",
      "istat": "108049"
    },
    "latitude": 45.6069669,
    "longitude": 9.3020956
  },
  {
    "street": "Via Giuseppe Mazzini",
    "number": "23b",
    "city": {
      "name": "Villasanta",
      "istat": "108049"
    },
    "latitude": 45.6069096,
    "longitude": 9.3020392
  },
  {
    "street": "Via Giuseppe Mazzini",
    "number": "21a",
    "city": {
      "name": "Villasanta",
      "istat": "108049"
    },
    "latitude": 45.6067792,
    "longitude": 9.3019494
  },
  {
    "street": "Via Giuseppe Mazzini",
    "number": "19",
    "city": {
      "name": "Villasanta",
      "istat": "108049"
    },
    "latitude": 45.6066957,
    "longitude": 9.301889
  },
  {
    "street": "Piazza Cesare Pavese",
    "number": "5",
    "city": {
      "name": "Villasanta",
      "istat": "108049"
    },
    "latitude": 45.6070035,
    "longitude": 9.3024409
  },
  {
    "street": "Piazza Cesare Pavese",
    "number": "4",
    "city": {
      "name": "Villasanta",
      "istat": "108049"
    },
    "latitude": 45.6068731,
    "longitude": 9.3026541
  },
  {
    "street": "Piazza Cesare Pavese",
    "number": "3",
    "city": {
      "name": "Villasanta",
      "istat": "108049"
    },
    "latitude": 45.6067971,
    "longitude": 9.3028768
  },
  {
    "street": "Piazza Cesare Pavese",
    "number": "2",
    "city": {
      "name": "Villasanta",
      "istat": "108049"
    },
    "latitude": 45.6067414,
    "longitude": 9.3031489
  },
  {
    "street": "Piazza Cesare Pavese",
    "number": "1",
    "city": {
      "name": "Villasanta",
      "istat": "108049"
    },
    "latitude": 45.6070119,
    "longitude": 9.3032831
  },
  {
    "street": "Via Giuseppe Mazzini",
    "number": "34",
    "city": {
      "name": "Villasanta",
      "istat": "108049"
    },
    "latitude": 45.6069153,
    "longitude": 9.302229
  },
  {
    "street": "Via Giuseppe Mazzini",
    "number": "22",
    "city": {
      "name": "Villasanta",
      "istat": "108049"
    },
    "latitude": 45.6066742,
    "longitude": 9.3020473
  },
  {
    "street": "Via Giuseppe Mazzini",
    "number": "26",
    "city": {
      "name": "Villasanta",
      "istat": "108049"
    },
    "latitude": 45.6067483,
    "longitude": 9.3020996
  },
  {
    "street": "Via Giuseppe Mazzini",
    "number": "12",
    "city": {
      "name": "Villasanta",
      "istat": "108049"
    },
    "latitude": 45.6064874,
    "longitude": 9.3019252
  },
  {
    "street": "Via Giuseppe Mazzini",
    "number": "16",
    "city": {
      "name": "Villasanta",
      "istat": "108049"
    },
    "latitude": 45.6065644,
    "longitude": 9.3019722
  },
  {
    "street": "Via Giuseppe Mazzini",
    "number": "41",
    "city": {
      "name": "Villasanta",
      "istat": "108049"
    },
    "latitude": 45.6072164,
    "longitude": 9.302349
  },
  {
    "street": "Via Giuseppe Mazzini",
    "number": "35",
    "city": {
      "name": "Villasanta",
      "istat": "108049"
    },
    "latitude": 45.6071395,
    "longitude": 9.3022592
  },
  {
    "street": "Via Giuseppe Mazzini",
    "number": "27",
    "city": {
      "name": "Villasanta",
      "istat": "108049"
    },
    "latitude": 45.6069922,
    "longitude": 9.3021197
  },
  {
    "street": "Via Giuseppe Mazzini",
    "number": "25",
    "city": {
      "name": "Villasanta",
      "istat": "108049"
    },
    "latitude": 45.6069387,
    "longitude": 9.3020661
  },
  {
    "street": "Via Giuseppe Mazzini",
    "number": "23a",
    "city": {
      "name": "Villasanta",
      "istat": "108049"
    },
    "latitude": 45.6068731,
    "longitude": 9.3020097
  },
  {
    "street": "Via Giuseppe Mazzini",
    "number": "23",
    "city": {
      "name": "Villasanta",
      "istat": "108049"
    },
    "latitude": 45.606828,
    "longitude": 9.3019776
  },
  {
    "street": "Via Giuseppe Mazzini",
    "number": "21",
    "city": {
      "name": "Villasanta",
      "istat": "108049"
    },
    "latitude": 45.606737,
    "longitude": 9.3019212
  },
  {
    "street": "Via Giuseppe Mazzini",
    "number": "17",
    "city": {
      "name": "Villasanta",
      "istat": "108049"
    },
    "latitude": 45.6066498,
    "longitude": 9.3018716
  },
  {
    "street": "Via Giuseppe Mazzini",
    "number": "8",
    "city": {
      "name": "Villasanta",
      "istat": "108049"
    },
    "latitude": 45.6064283,
    "longitude": 9.3019038
  },
  {
    "street": "Via Giuseppe Mazzini",
    "number": "45",
    "city": {
      "name": "Villasanta",
      "istat": "108049"
    },
    "latitude": 45.607345,
    "longitude": 9.3023879
  },
  {
    "street": "Piazza Lorenzo Daelli",
    "number": "1",
    "city": {
      "name": "Villasanta",
      "istat": "108049"
    },
    "latitude": 45.6079712,
    "longitude": 9.3030545
  },
  {
    "street": "Via Giuseppe Mazzini",
    "number": "63a",
    "city": {
      "name": "Villasanta",
      "istat": "108049"
    },
    "latitude": 45.6079074,
    "longitude": 9.3029874
  },
  {
    "street": "Via Giuseppe Mazzini",
    "number": "61",
    "city": {
      "name": "Villasanta",
      "istat": "108049"
    },
    "latitude": 45.6078258,
    "longitude": 9.3029123
  },
  {
    "street": "Via Giuseppe Mazzini",
    "number": "57",
    "city": {
      "name": "Villasanta",
      "istat": "108049"
    },
    "latitude": 45.6077385,
    "longitude": 9.3028318
  },
  {
    "street": "Via Giuseppe Mazzini",
    "number": "51",
    "city": {
      "name": "Villasanta",
      "istat": "108049"
    },
    "latitude": 45.6075535,
    "longitude": 9.3025727
  },
  {
    "street": "Via della Resega",
    "number": "4",
    "city": {
      "name": "Villasanta",
      "istat": "108049"
    },
    "latitude": 45.6067056,
    "longitude": 9.3013472
  },
  {
    "street": "Via Riccardo Bacchelli",
    "number": "3",
    "city": {
      "name": "Villasanta",
      "istat": "108049"
    },
    "latitude": 45.6075115,
    "longitude": 9.3032503
  },
  {
    "street": "Via Riccardo Bacchelli",
    "number": "1",
    "city": {
      "name": "Villasanta",
      "istat": "108049"
    },
    "latitude": 45.6075828,
    "longitude": 9.3030598
  },
  {
    "street": "Via Giosu√® Carducci",
    "number": "10",
    "city": {
      "name": "Villasanta",
      "istat": "108049"
    },
    "latitude": 45.6061164,
    "longitude": 9.3043459
  },
  {
    "street": "Via Giosu√® Carducci",
    "number": "8",
    "city": {
      "name": "Villasanta",
      "istat": "108049"
    },
    "latitude": 45.6060357,
    "longitude": 9.3042816
  },
  {
    "street": "Via Giosu√® Carducci",
    "number": "14",
    "city": {
      "name": "Villasanta",
      "istat": "108049"
    },
    "latitude": 45.6064654,
    "longitude": 9.3045364
  },
  {
    "street": "Via Giosu√® Carducci",
    "number": "12",
    "city": {
      "name": "Villasanta",
      "istat": "108049"
    },
    "latitude": 45.6063284,
    "longitude": 9.3044318
  },
  {
    "street": "Via Giosu√® Carducci",
    "number": "15",
    "city": {
      "name": "Villasanta",
      "istat": "108049"
    },
    "latitude": 45.6064485,
    "longitude": 9.3042816
  },
  {
    "street": "Via Giosu√® Carducci",
    "number": "13",
    "city": {
      "name": "Villasanta",
      "istat": "108049"
    },
    "latitude": 45.6063059,
    "longitude": 9.3042145
  },
  {
    "street": "Via Giosu√® Carducci",
    "number": "11",
    "city": {
      "name": "Villasanta",
      "istat": "108049"
    },
    "latitude": 45.6061502,
    "longitude": 9.3041287
  },
  {
    "street": "Via Giosu√® Carducci",
    "number": "16",
    "city": {
      "name": "Villasanta",
      "istat": "108049"
    },
    "latitude": 45.6066305,
    "longitude": 9.3046088
  },
  {
    "street": "Via Giovanni Pascoli",
    "number": "2",
    "city": {
      "name": "Villasanta",
      "istat": "108049"
    },
    "latitude": 45.60682,
    "longitude": 9.3049307
  },
  {
    "street": "Via Giosu√® Carducci",
    "number": "17",
    "city": {
      "name": "Villasanta",
      "istat": "108049"
    },
    "latitude": 45.6068501,
    "longitude": 9.3044452
  },
  {
    "street": "Via Giacomo Leopardi",
    "number": "8",
    "city": {
      "name": "Villasanta",
      "istat": "108049"
    },
    "latitude": 45.6065592,
    "longitude": 9.3034675
  },
  {
    "street": "Via Giacomo Leopardi",
    "number": "6",
    "city": {
      "name": "Villasanta",
      "istat": "108049"
    },
    "latitude": 45.6064129,
    "longitude": 9.3033951
  },
  {
    "street": "Via Giacomo Leopardi",
    "number": "12",
    "city": {
      "name": "Villasanta",
      "istat": "108049"
    },
    "latitude": 45.6068257,
    "longitude": 9.3036124
  },
  {
    "street": "Via Giacomo Leopardi",
    "number": "10",
    "city": {
      "name": "Villasanta",
      "istat": "108049"
    },
    "latitude": 45.6067262,
    "longitude": 9.3035641
  },
  {
    "street": "Via Giacomo Leopardi",
    "number": "14",
    "city": {
      "name": "Villasanta",
      "istat": "108049"
    },
    "latitude": 45.6069101,
    "longitude": 9.303674
  },
  {
    "street": "Via Giosu√® Carducci",
    "number": "20",
    "city": {
      "name": "Villasanta",
      "istat": "108049"
    },
    "latitude": 45.6073848,
    "longitude": 9.304413
  },
  {
    "street": "Via Giosu√® Carducci",
    "number": "18",
    "city": {
      "name": "Villasanta",
      "istat": "108049"
    },
    "latitude": 45.6073248,
    "longitude": 9.3043754
  },
  {
    "street": "Via Giosu√® Carducci",
    "number": "35",
    "city": {
      "name": "Villasanta",
      "istat": "108049"
    },
    "latitude": 45.6078907,
    "longitude": 9.3045063
  },
  {
    "street": "Via Giosu√® Carducci",
    "number": "33",
    "city": {
      "name": "Villasanta",
      "istat": "108049"
    },
    "latitude": 45.6078451,
    "longitude": 9.3044844
  },
  {
    "street": "Via Giosu√® Carducci",
    "number": "29",
    "city": {
      "name": "Villasanta",
      "istat": "108049"
    },
    "latitude": 45.6077341,
    "longitude": 9.3044308
  },
  {
    "street": "Via Giosu√® Carducci",
    "number": "25",
    "city": {
      "name": "Villasanta",
      "istat": "108049"
    },
    "latitude": 45.6076253,
    "longitude": 9.3043784
  },
  {
    "street": "Via Alessandro Manzoni",
    "number": "3a",
    "city": {
      "name": "Villasanta",
      "istat": "108049"
    },
    "latitude": 45.6084375,
    "longitude": 9.304818
  },
  {
    "street": "Via Alessandro Manzoni",
    "number": "7",
    "city": {
      "name": "Villasanta",
      "istat": "108049"
    },
    "latitude": 45.6083906,
    "longitude": 9.3050084
  },
  {
    "street": "Via Giosu√® Carducci",
    "number": "37",
    "city": {
      "name": "Villasanta",
      "istat": "108049"
    },
    "latitude": 45.6079368,
    "longitude": 9.3045286
  },
  {
    "street": "Via Giosu√® Carducci",
    "number": "31",
    "city": {
      "name": "Villasanta",
      "istat": "108049"
    },
    "latitude": 45.6077942,
    "longitude": 9.3044598
  },
  {
    "street": "Via Giosu√® Carducci",
    "number": "27",
    "city": {
      "name": "Villasanta",
      "istat": "108049"
    },
    "latitude": 45.6076711,
    "longitude": 9.3044005
  },
  {
    "street": "Via Giosu√® Carducci",
    "number": "23",
    "city": {
      "name": "Villasanta",
      "istat": "108049"
    },
    "latitude": 45.6075518,
    "longitude": 9.3042682
  },
  {
    "street": "Via Alessandro Manzoni",
    "number": "5",
    "city": {
      "name": "Villasanta",
      "istat": "108049"
    },
    "latitude": 45.6085257,
    "longitude": 9.3050889
  },
  {
    "street": "Via Alessandro Manzoni",
    "number": "9",
    "city": {
      "name": "Villasanta",
      "istat": "108049"
    },
    "latitude": 45.6083455,
    "longitude": 9.3050675
  },
  {
    "street": "Via Alessandro Manzoni",
    "number": "11",
    "city": {
      "name": "Villasanta",
      "istat": "108049"
    },
    "latitude": 45.6083136,
    "longitude": 9.3052203
  },
  {
    "street": "Via Alessandro Manzoni",
    "number": "19",
    "city": {
      "name": "Villasanta",
      "istat": "108049"
    },
    "latitude": 45.6082001,
    "longitude": 9.3057313
  },
  {
    "street": "Via Alessandro Manzoni",
    "number": "15",
    "city": {
      "name": "Villasanta",
      "istat": "108049"
    },
    "latitude": 45.6082489,
    "longitude": 9.3055409
  },
  {
    "street": "Piazza Europa",
    "number": "8",
    "city": {
      "name": "Villasanta",
      "istat": "108049"
    },
    "latitude": 45.6077371,
    "longitude": 9.306076
  },
  {
    "street": "Piazza Europa",
    "number": "6",
    "city": {
      "name": "Villasanta",
      "istat": "108049"
    },
    "latitude": 45.6077831,
    "longitude": 9.3059049
  },
  {
    "street": "Piazza Europa",
    "number": "4",
    "city": {
      "name": "Villasanta",
      "istat": "108049"
    },
    "latitude": 45.6078306,
    "longitude": 9.3057282
  },
  {
    "street": "Piazza Europa",
    "number": "2",
    "city": {
      "name": "Villasanta",
      "istat": "108049"
    },
    "latitude": 45.6078724,
    "longitude": 9.3055726
  },
  {
    "street": "Piazza Europa",
    "number": "10",
    "city": {
      "name": "Villasanta",
      "istat": "108049"
    },
    "latitude": 45.6076922,
    "longitude": 9.3062429
  },
  {
    "street": "Piazza Europa",
    "number": "14",
    "city": {
      "name": "Villasanta",
      "istat": "108049"
    },
    "latitude": 45.6074313,
    "longitude": 9.3061169
  },
  {
    "street": "Piazza Europa",
    "number": "12",
    "city": {
      "name": "Villasanta",
      "istat": "108049"
    },
    "latitude": 45.60756,
    "longitude": 9.3061828
  },
  {
    "street": "Via Alessandro Manzoni",
    "number": "10",
    "city": {
      "name": "Villasanta",
      "istat": "108049"
    },
    "latitude": 45.6078715,
    "longitude": 9.3059118
  },
  {
    "street": "Via Alessandro Manzoni",
    "number": "6",
    "city": {
      "name": "Villasanta",
      "istat": "108049"
    },
    "latitude": 45.6079463,
    "longitude": 9.3056103
  },
  {
    "street": "Via Alessandro Manzoni",
    "number": "27",
    "city": {
      "name": "Villasanta",
      "istat": "108049"
    },
    "latitude": 45.608065,
    "longitude": 9.3063603
  },
  {
    "street": "Via Alessandro Manzoni",
    "number": "31",
    "city": {
      "name": "Villasanta",
      "istat": "108049"
    },
    "latitude": 45.6080247,
    "longitude": 9.3065319
  },
  {
    "street": "Via Alessandro Manzoni",
    "number": "37",
    "city": {
      "name": "Villasanta",
      "istat": "108049"
    },
    "latitude": 45.6079196,
    "longitude": 9.3070429
  },
  {
    "street": "Via Alessandro Manzoni",
    "number": "16",
    "city": {
      "name": "Villasanta",
      "istat": "108049"
    },
    "latitude": 45.607732,
    "longitude": 9.306485
  },
  {
    "street": "Via Alessandro Manzoni",
    "number": "13",
    "city": {
      "name": "Villasanta",
      "istat": "108049"
    },
    "latitude": 45.6082799,
    "longitude": 9.305392
  },
  {
    "street": "Piazza Europa",
    "number": "20",
    "city": {
      "name": "Villasanta",
      "istat": "108049"
    },
    "latitude": 45.6074355,
    "longitude": 9.3051519
  },
  {
    "street": "Via Alessandro Manzoni",
    "number": "17",
    "city": {
      "name": "Villasanta",
      "istat": "108049"
    },
    "latitude": 45.6082151,
    "longitude": 9.3056669
  },
  {
    "street": "Via Alessandro Manzoni",
    "number": "23",
    "city": {
      "name": "Villasanta",
      "istat": "108049"
    },
    "latitude": 45.6081513,
    "longitude": 9.3059807
  },
  {
    "street": "Piazza Europa",
    "number": "7",
    "city": {
      "name": "Villasanta",
      "istat": "108049"
    },
    "latitude": 45.6077593,
    "longitude": 9.3059932
  },
  {
    "street": "Piazza Europa",
    "number": "5",
    "city": {
      "name": "Villasanta",
      "istat": "108049"
    },
    "latitude": 45.6078077,
    "longitude": 9.3058135
  },
  {
    "street": "Piazza Europa",
    "number": "3",
    "city": {
      "name": "Villasanta",
      "istat": "108049"
    },
    "latitude": 45.607851,
    "longitude": 9.3056523
  },
  {
    "street": "Piazza Europa",
    "number": "1",
    "city": {
      "name": "Villasanta",
      "istat": "108049"
    },
    "latitude": 45.6078949,
    "longitude": 9.3054892
  },
  {
    "street": "Piazza Europa",
    "number": "9",
    "city": {
      "name": "Villasanta",
      "istat": "108049"
    },
    "latitude": 45.6077145,
    "longitude": 9.30616
  },
  {
    "street": "Piazza Europa",
    "number": "19",
    "city": {
      "name": "Villasanta",
      "istat": "108049"
    },
    "latitude": 45.6075462,
    "longitude": 9.3054108
  },
  {
    "street": "Piazza Europa",
    "number": "18",
    "city": {
      "name": "Villasanta",
      "istat": "108049"
    },
    "latitude": 45.6074815,
    "longitude": 9.3056495
  },
  {
    "street": "Piazza Europa",
    "number": "13",
    "city": {
      "name": "Villasanta",
      "istat": "108049"
    },
    "latitude": 45.607491,
    "longitude": 9.3061475
  },
  {
    "street": "Piazza Europa",
    "number": "11",
    "city": {
      "name": "Villasanta",
      "istat": "108049"
    },
    "latitude": 45.6076171,
    "longitude": 9.3062121
  },
  {
    "street": "Via Alessandro Manzoni",
    "number": "12",
    "city": {
      "name": "Villasanta",
      "istat": "108049"
    },
    "latitude": 45.6078524,
    "longitude": 9.3059885
  },
  {
    "street": "Via Alessandro Manzoni",
    "number": "8",
    "city": {
      "name": "Villasanta",
      "istat": "108049"
    },
    "latitude": 45.6079276,
    "longitude": 9.3056855
  },
  {
    "street": "Via Alessandro Manzoni",
    "number": "25",
    "city": {
      "name": "Villasanta",
      "istat": "108049"
    },
    "latitude": 45.6080857,
    "longitude": 9.3062463
  },
  {
    "street": "Via Alessandro Manzoni",
    "number": "29",
    "city": {
      "name": "Villasanta",
      "istat": "108049"
    },
    "latitude": 45.6080406,
    "longitude": 9.3064542
  },
  {
    "street": "Via Alessandro Manzoni",
    "number": "33",
    "city": {
      "name": "Villasanta",
      "istat": "108049"
    },
    "latitude": 45.608005,
    "longitude": 9.3066392
  },
  {
    "street": "Via Alessandro Manzoni",
    "number": "14",
    "city": {
      "name": "Villasanta",
      "istat": "108049"
    },
    "latitude": 45.6077404,
    "longitude": 9.3064421
  },
  {
    "street": "Via Alessandro Manzoni",
    "number": "53",
    "city": {
      "name": "Villasanta",
      "istat": "108049"
    },
    "latitude": 45.6078431,
    "longitude": 9.3086187
  },
  {
    "street": "Via Alessandro Manzoni",
    "number": "49",
    "city": {
      "name": "Villasanta",
      "istat": "108049"
    },
    "latitude": 45.6075851,
    "longitude": 9.3083646
  },
  {
    "street": "Via Alessandro Manzoni",
    "number": "45",
    "city": {
      "name": "Villasanta",
      "istat": "108049"
    },
    "latitude": 45.6076452,
    "longitude": 9.3077128
  },
  {
    "street": "Via Alessandro Manzoni",
    "number": "40",
    "city": {
      "name": "Villasanta",
      "istat": "108049"
    },
    "latitude": 45.6074303,
    "longitude": 9.3079139
  },
  {
    "street": "Via Alessandro Manzoni",
    "number": "43",
    "city": {
      "name": "Villasanta",
      "istat": "108049"
    },
    "latitude": 45.6077024,
    "longitude": 9.3075653
  },
  {
    "street": "Via Alessandro Manzoni",
    "number": "39",
    "city": {
      "name": "Villasanta",
      "istat": "108049"
    },
    "latitude": 45.6078009,
    "longitude": 9.307344
  },
  {
    "street": "Via Alessandro Volta",
    "number": "30",
    "city": {
      "name": "Villasanta",
      "istat": "108049"
    },
    "latitude": 45.6070161,
    "longitude": 9.3067646
  },
  {
    "street": "Via Alessandro Volta",
    "number": "36",
    "city": {
      "name": "Villasanta",
      "istat": "108049"
    },
    "latitude": 45.6074092,
    "longitude": 9.3069779
  },
  {
    "street": "Via Alessandro Volta",
    "number": "27a",
    "city": {
      "name": "Villasanta",
      "istat": "108049"
    },
    "latitude": 45.6071991,
    "longitude": 9.3066748
  },
  {
    "street": "Via Alessandro Manzoni",
    "number": "18",
    "city": {
      "name": "Villasanta",
      "istat": "108049"
    },
    "latitude": 45.6076776,
    "longitude": 9.3066902
  },
  {
    "street": "Via Alessandro Manzoni",
    "number": "51",
    "city": {
      "name": "Villasanta",
      "istat": "108049"
    },
    "latitude": 45.6076668,
    "longitude": 9.3084403
  },
  {
    "street": "Via Alessandro Manzoni",
    "number": "55",
    "city": {
      "name": "Villasanta",
      "istat": "108049"
    },
    "latitude": 45.607876,
    "longitude": 9.3086737
  },
  {
    "street": "Via Alessandro Manzoni",
    "number": "47",
    "city": {
      "name": "Villasanta",
      "istat": "108049"
    },
    "latitude": 45.6074801,
    "longitude": 9.3080856
  },
  {
    "street": "Via Alessandro Manzoni",
    "number": "42",
    "city": {
      "name": "Villasanta",
      "istat": "108049"
    },
    "latitude": 45.6073365,
    "longitude": 9.308099
  },
  {
    "street": "Via Alessandro Manzoni",
    "number": "38",
    "city": {
      "name": "Villasanta",
      "istat": "108049"
    },
    "latitude": 45.6074773,
    "longitude": 9.307812
  },
  {
    "street": "Via Alessandro Manzoni",
    "number": "41",
    "city": {
      "name": "Villasanta",
      "istat": "108049"
    },
    "latitude": 45.6077334,
    "longitude": 9.3074674
  },
  {
    "street": "Via Alessandro Manzoni",
    "number": "22",
    "city": {
      "name": "Villasanta",
      "istat": "108049"
    },
    "latitude": 45.6074533,
    "longitude": 9.3073279
  },
  {
    "street": "Via Alessandro Manzoni",
    "number": "36",
    "city": {
      "name": "Villasanta",
      "istat": "108049"
    },
    "latitude": 45.6074421,
    "longitude": 9.3074513
  },
  {
    "street": "Via Alessandro Manzoni",
    "number": "32",
    "city": {
      "name": "Villasanta",
      "istat": "108049"
    },
    "latitude": 45.6072901,
    "longitude": 9.3073601
  },
  {
    "street": "Via Alessandro Volta",
    "number": "34",
    "city": {
      "name": "Villasanta",
      "istat": "108049"
    },
    "latitude": 45.6071006,
    "longitude": 9.30723
  },
  {
    "street": "Via Alessandro Volta",
    "number": "29",
    "city": {
      "name": "Villasanta",
      "istat": "108049"
    },
    "latitude": 45.6074721,
    "longitude": 9.3068263
  },
  {
    "street": "Via Alessandro Volta",
    "number": "32",
    "city": {
      "name": "Villasanta",
      "istat": "108049"
    },
    "latitude": 45.6070264,
    "longitude": 9.3071227
  },
  {
    "street": "Via Alessandro Volta",
    "number": "26a",
    "city": {
      "name": "Villasanta",
      "istat": "108049"
    },
    "latitude": 45.6068275,
    "longitude": 9.3067847
  },
  {
    "street": "Via Alessandro Volta",
    "number": "25",
    "city": {
      "name": "Villasanta",
      "istat": "108049"
    },
    "latitude": 45.6070931,
    "longitude": 9.3066144
  },
  {
    "street": "Via Alessandro Volta",
    "number": "23a",
    "city": {
      "name": "Villasanta",
      "istat": "108049"
    },
    "latitude": 45.6070021,
    "longitude": 9.3065715
  },
  {
    "street": "Via Alessandro Volta",
    "number": "21a",
    "city": {
      "name": "Villasanta",
      "istat": "108049"
    },
    "latitude": 45.6069411,
    "longitude": 9.3065286
  },
  {
    "street": "Via Alessandro Volta",
    "number": "21",
    "city": {
      "name": "Villasanta",
      "istat": "108049"
    },
    "latitude": 45.6068548,
    "longitude": 9.3064776
  },
  {
    "street": "Via Alessandro Volta",
    "number": "15",
    "city": {
      "name": "Villasanta",
      "istat": "108049"
    },
    "latitude": 45.6067534,
    "longitude": 9.3064133
  },
  {
    "street": "Via Alessandro Volta",
    "number": "26",
    "city": {
      "name": "Villasanta",
      "istat": "108049"
    },
    "latitude": 45.6066249,
    "longitude": 9.3067003
  },
  {
    "street": "Via Alessandro Volta",
    "number": "22",
    "city": {
      "name": "Villasanta",
      "istat": "108049"
    },
    "latitude": 45.606532,
    "longitude": 9.3065407
  },
  {
    "street": "Via Alessandro Volta",
    "number": "18",
    "city": {
      "name": "Villasanta",
      "istat": "108049"
    },
    "latitude": 45.6061989,
    "longitude": 9.3063663
  },
  {
    "street": "Via Alessandro Volta",
    "number": "14",
    "city": {
      "name": "Villasanta",
      "istat": "108049"
    },
    "latitude": 45.6059484,
    "longitude": 9.3062228
  },
  {
    "street": "Via Alessandro Volta",
    "number": "11a",
    "city": {
      "name": "Villasanta",
      "istat": "108049"
    },
    "latitude": 45.6063978,
    "longitude": 9.3062201
  },
  {
    "street": "Via Alessandro Volta",
    "number": "9",
    "city": {
      "name": "Villasanta",
      "istat": "108049"
    },
    "latitude": 45.6060357,
    "longitude": 9.3060418
  },
  {
    "street": "Via Alessandro Volta",
    "number": "7",
    "city": {
      "name": "Villasanta",
      "istat": "108049"
    },
    "latitude": 45.6057767,
    "longitude": 9.3059077
  },
  {
    "street": "Via Alessandro Volta",
    "number": "5",
    "city": {
      "name": "Villasanta",
      "istat": "108049"
    },
    "latitude": 45.6056914,
    "longitude": 9.3058688
  },
  {
    "street": "Via Alessandro Volta",
    "number": "19",
    "city": {
      "name": "Villasanta",
      "istat": "108049"
    },
    "latitude": 45.606821,
    "longitude": 9.3063918
  },
  {
    "street": "Via Alessandro Volta",
    "number": "13",
    "city": {
      "name": "Villasanta",
      "istat": "108049"
    },
    "latitude": 45.6066953,
    "longitude": 9.3063837
  },
  {
    "street": "Via Alessandro Volta",
    "number": "11b",
    "city": {
      "name": "Villasanta",
      "istat": "108049"
    },
    "latitude": 45.606532,
    "longitude": 9.3063234
  },
  {
    "street": "Via Alessandro Volta",
    "number": "24",
    "city": {
      "name": "Villasanta",
      "istat": "108049"
    },
    "latitude": 45.6065639,
    "longitude": 9.3065836
  },
  {
    "street": "Via Alessandro Volta",
    "number": "20",
    "city": {
      "name": "Villasanta",
      "istat": "108049"
    },
    "latitude": 45.6062196,
    "longitude": 9.3063757
  },
  {
    "street": "Via Alessandro Volta",
    "number": "16",
    "city": {
      "name": "Villasanta",
      "istat": "108049"
    },
    "latitude": 45.605971,
    "longitude": 9.3062376
  },
  {
    "street": "Via Alessandro Volta",
    "number": "12",
    "city": {
      "name": "Villasanta",
      "istat": "108049"
    },
    "latitude": 45.6058481,
    "longitude": 9.3061531
  },
  {
    "street": "Via Alessandro Volta",
    "number": "11",
    "city": {
      "name": "Villasanta",
      "istat": "108049"
    },
    "latitude": 45.6062637,
    "longitude": 9.3061598
  },
  {
    "street": "Via Alessandro Volta",
    "number": "5a",
    "city": {
      "name": "Villasanta",
      "istat": "108049"
    },
    "latitude": 45.6057326,
    "longitude": 9.3058849
  },
  {
    "street": "Via Alessandro Volta",
    "number": "3",
    "city": {
      "name": "Villasanta",
      "istat": "108049"
    },
    "latitude": 45.6054324,
    "longitude": 9.3057306
  },
  {
    "street": "Via Alessandro Volta",
    "number": "2",
    "city": {
      "name": "Villasanta",
      "istat": "108049"
    },
    "latitude": 45.6051941,
    "longitude": 9.3057803
  },
  {
    "street": "Via Giuseppe Garibaldi",
    "number": "76",
    "city": {
      "name": "Villasanta",
      "istat": "108049"
    },
    "latitude": 45.6039915,
    "longitude": 9.3094861
  },
  {
    "street": "Via Giuseppe Garibaldi",
    "number": "74",
    "city": {
      "name": "Villasanta",
      "istat": "108049"
    },
    "latitude": 45.6040271,
    "longitude": 9.3093842
  },
  {
    "street": "Via Giuseppe Garibaldi",
    "number": "70",
    "city": {
      "name": "Villasanta",
      "istat": "108049"
    },
    "latitude": 45.604074,
    "longitude": 9.3092045
  },
  {
    "street": "Via Giuseppe Garibaldi",
    "number": "77",
    "city": {
      "name": "Villasanta",
      "istat": "108049"
    },
    "latitude": 45.6042636,
    "longitude": 9.3089578
  },
  {
    "street": "Via Giuseppe Garibaldi",
    "number": "75a",
    "city": {
      "name": "Villasanta",
      "istat": "108049"
    },
    "latitude": 45.6043724,
    "longitude": 9.3084937
  },
  {
    "street": "Via Goffredo Mameli",
    "number": "8",
    "city": {
      "name": "Villasanta",
      "istat": "108049"
    },
    "latitude": 45.6043649,
    "longitude": 9.312112
  },
  {
    "street": "Via dei Mille",
    "number": "11",
    "city": {
      "name": "Villasanta",
      "istat": "108049"
    },
    "latitude": 45.6035993,
    "longitude": 9.312045
  },
  {
    "street": "Via dei Mille",
    "number": "9",
    "city": {
      "name": "Villasanta",
      "istat": "108049"
    },
    "latitude": 45.6036143,
    "longitude": 9.3118197
  },
  {
    "street": "Via dei Mille",
    "number": "7",
    "city": {
      "name": "Villasanta",
      "istat": "108049"
    },
    "latitude": 45.6036875,
    "longitude": 9.31153
  },
  {
    "street": "Via dei Mille",
    "number": "5",
    "city": {
      "name": "Villasanta",
      "istat": "108049"
    },
    "latitude": 45.6037269,
    "longitude": 9.3113825
  },
  {
    "street": "Via dei Mille",
    "number": "3",
    "city": {
      "name": "Villasanta",
      "istat": "108049"
    },
    "latitude": 45.6037569,
    "longitude": 9.3112725
  },
  {
    "street": "Via dei Mille",
    "number": "14",
    "city": {
      "name": "Villasanta",
      "istat": "108049"
    },
    "latitude": 45.6035543,
    "longitude": 9.3116051
  },
  {
    "street": "Via dei Mille",
    "number": "12",
    "city": {
      "name": "Villasanta",
      "istat": "108049"
    },
    "latitude": 45.6036969,
    "longitude": 9.3110847
  },
  {
    "street": "Via dei Mille",
    "number": "10",
    "city": {
      "name": "Villasanta",
      "istat": "108049"
    },
    "latitude": 45.6037494,
    "longitude": 9.3108943
  },
  {
    "street": "Via dei Mille",
    "number": "1",
    "city": {
      "name": "Villasanta",
      "istat": "108049"
    },
    "latitude": 45.6038301,
    "longitude": 9.3109882
  },
  {
    "street": "Via dei Mille",
    "number": "6",
    "city": {
      "name": "Villasanta",
      "istat": "108049"
    },
    "latitude": 45.6037963,
    "longitude": 9.3106958
  },
  {
    "street": "Via dei Mille",
    "number": "4",
    "city": {
      "name": "Villasanta",
      "istat": "108049"
    },
    "latitude": 45.6038263,
    "longitude": 9.3105885
  },
  {
    "street": "Via Amatore Sciesa",
    "number": "7",
    "city": {
      "name": "Villasanta",
      "istat": "108049"
    },
    "latitude": 45.6059505,
    "longitude": 9.3106663
  },
  {
    "street": "Via Bruno Buozzi",
    "number": "6",
    "city": {
      "name": "Villasanta",
      "istat": "108049"
    },
    "latitude": 45.6060762,
    "longitude": 9.3095827
  },
  {
    "street": "Via Bruno Buozzi",
    "number": "15",
    "city": {
      "name": "Villasanta",
      "istat": "108049"
    },
    "latitude": 45.6059655,
    "longitude": 9.3082899
  },
  {
    "street": "Via Bruno Buozzi",
    "number": "13",
    "city": {
      "name": "Villasanta",
      "istat": "108049"
    },
    "latitude": 45.6061175,
    "longitude": 9.308762
  },
  {
    "street": "Via Bruno Buozzi",
    "number": "11",
    "city": {
      "name": "Villasanta",
      "istat": "108049"
    },
    "latitude": 45.6060162,
    "longitude": 9.3092072
  },
  {
    "street": "Via Bruno Buozzi",
    "number": "9",
    "city": {
      "name": "Villasanta",
      "istat": "108049"
    },
    "latitude": 45.605594,
    "longitude": 9.3094888
  },
  {
    "street": "Via Bruno Buozzi",
    "number": "1",
    "city": {
      "name": "Villasanta",
      "istat": "108049"
    },
    "latitude": 45.6056165,
    "longitude": 9.3104839
  },
  {
    "street": "Via Bruno Buozzi",
    "number": "3",
    "city": {
      "name": "Villasanta",
      "istat": "108049"
    },
    "latitude": 45.6056296,
    "longitude": 9.310433
  },
  {
    "street": "Via Bruno Buozzi",
    "number": "5",
    "city": {
      "name": "Villasanta",
      "istat": "108049"
    },
    "latitude": 45.6057066,
    "longitude": 9.3101057
  },
  {
    "street": "Via Bruno Buozzi",
    "number": "7",
    "city": {
      "name": "Villasanta",
      "istat": "108049"
    },
    "latitude": 45.6057253,
    "longitude": 9.3100467
  },
  {
    "street": "Via Bruno Buozzi",
    "number": "4",
    "city": {
      "name": "Villasanta",
      "istat": "108049"
    },
    "latitude": 45.6059712,
    "longitude": 9.3102398
  },
  {
    "street": "Via Camillo Benso conte di Cavour",
    "number": "6",
    "city": {
      "name": "Villasanta",
      "istat": "108049"
    },
    "latitude": 45.6057648,
    "longitude": 9.3122998
  },
  {
    "street": "Via Camillo Benso conte di Cavour",
    "number": "4",
    "city": {
      "name": "Villasanta",
      "istat": "108049"
    },
    "latitude": 45.6056353,
    "longitude": 9.3121093
  },
  {
    "street": "Via Camillo Benso conte di Cavour",
    "number": "2",
    "city": {
      "name": "Villasanta",
      "istat": "108049"
    },
    "latitude": 45.6055771,
    "longitude": 9.3120182
  },
  {
    "street": "Via Camillo Benso conte di Cavour",
    "number": "1",
    "city": {
      "name": "Villasanta",
      "istat": "108049"
    },
    "latitude": 45.6058079,
    "longitude": 9.3120423
  },
  {
    "street": "Piazza Paolo Sesto",
    "number": "3",
    "city": {
      "name": "Villasanta",
      "istat": "108049"
    },
    "latitude": 45.6057188,
    "longitude": 9.3116574
  },
  {
    "street": "Piazza Paolo Sesto",
    "number": "2",
    "city": {
      "name": "Villasanta",
      "istat": "108049"
    },
    "latitude": 45.6057788,
    "longitude": 9.3116601
  },
  {
    "street": "Piazza Paolo Sesto",
    "number": "6",
    "city": {
      "name": "Villasanta",
      "istat": "108049"
    },
    "latitude": 45.6052906,
    "longitude": 9.3116709
  },
  {
    "street": "Piazza Paolo Sesto",
    "number": "7",
    "city": {
      "name": "Villasanta",
      "istat": "108049"
    },
    "latitude": 45.6053217,
    "longitude": 9.311688
  },
  {
    "street": "Piazza Paolo Sesto",
    "number": "5",
    "city": {
      "name": "Villasanta",
      "istat": "108049"
    },
    "latitude": 45.605381,
    "longitude": 9.3117206
  },
  {
    "street": "Piazza Paolo Sesto",
    "number": "4",
    "city": {
      "name": "Villasanta",
      "istat": "108049"
    },
    "latitude": 45.6054125,
    "longitude": 9.311738
  },
  {
    "street": "Via Amatore Sciesa",
    "number": "4",
    "city": {
      "name": "Villasanta",
      "istat": "108049"
    },
    "latitude": 45.6047421,
    "longitude": 9.3110633
  },
  {
    "street": "Via Amatore Sciesa",
    "number": "6",
    "city": {
      "name": "Villasanta",
      "istat": "108049"
    },
    "latitude": 45.6049278,
    "longitude": 9.311184
  },
  {
    "street": "Via Massimo D'Azeglio",
    "number": "30",
    "city": {
      "name": "Villasanta",
      "istat": "108049"
    },
    "latitude": 45.6051939,
    "longitude": 9.3119621
  },
  {
    "street": "Via Massimo D'Azeglio",
    "number": "32",
    "city": {
      "name": "Villasanta",
      "istat": "108049"
    },
    "latitude": 45.6052141,
    "longitude": 9.3118881
  },
  {
    "street": "Via Massimo D'Azeglio",
    "number": "34",
    "city": {
      "name": "Villasanta",
      "istat": "108049"
    },
    "latitude": 45.6052348,
    "longitude": 9.3118125
  },
  {
    "street": "Via Massimo D'Azeglio",
    "number": "36",
    "city": {
      "name": "Villasanta",
      "istat": "108049"
    },
    "latitude": 45.6052502,
    "longitude": 9.3117564
  },
  {
    "street": "Via Massimo D'Azeglio",
    "number": "38",
    "city": {
      "name": "Villasanta",
      "istat": "108049"
    },
    "latitude": 45.605268,
    "longitude": 9.3116912
  },
  {
    "street": "Via Massimo D'Azeglio",
    "number": "22",
    "city": {
      "name": "Villasanta",
      "istat": "108049"
    },
    "latitude": 45.6050479,
    "longitude": 9.3122461
  },
  {
    "street": "Via Massimo D'Azeglio",
    "number": "24",
    "city": {
      "name": "Villasanta",
      "istat": "108049"
    },
    "latitude": 45.6050742,
    "longitude": 9.3122569
  },
  {
    "street": "Via Massimo D'Azeglio",
    "number": "26",
    "city": {
      "name": "Villasanta",
      "istat": "108049"
    },
    "latitude": 45.605093,
    "longitude": 9.3122247
  },
  {
    "street": "Via Massimo D'Azeglio",
    "number": "20",
    "city": {
      "name": "Villasanta",
      "istat": "108049"
    },
    "latitude": 45.6049673,
    "longitude": 9.3122005
  },
  {
    "street": "Via Massimo D'Azeglio",
    "number": "18",
    "city": {
      "name": "Villasanta",
      "istat": "108049"
    },
    "latitude": 45.6048978,
    "longitude": 9.3121684
  },
  {
    "street": "Via Massimo D'Azeglio",
    "number": "16",
    "city": {
      "name": "Villasanta",
      "istat": "108049"
    },
    "latitude": 45.6047759,
    "longitude": 9.3121254
  },
  {
    "street": "Via Massimo D'Azeglio",
    "number": "11",
    "city": {
      "name": "Villasanta",
      "istat": "108049"
    },
    "latitude": 45.6050761,
    "longitude": 9.3119431
  },
  {
    "street": "Via Massimo D'Azeglio",
    "number": "13",
    "city": {
      "name": "Villasanta",
      "istat": "108049"
    },
    "latitude": 45.6051099,
    "longitude": 9.311817
  },
  {
    "street": "Via Massimo D'Azeglio",
    "number": "15",
    "city": {
      "name": "Villasanta",
      "istat": "108049"
    },
    "latitude": 45.6051361,
    "longitude": 9.3117231
  },
  {
    "street": "Via Massimo D'Azeglio",
    "number": "9",
    "city": {
      "name": "Villasanta",
      "istat": "108049"
    },
    "latitude": 45.6048059,
    "longitude": 9.3119699
  },
  {
    "street": "Via Massimo D'Azeglio",
    "number": "12",
    "city": {
      "name": "Villasanta",
      "istat": "108049"
    },
    "latitude": 45.6046426,
    "longitude": 9.3120262
  },
  {
    "street": "Via Massimo D'Azeglio",
    "number": "10",
    "city": {
      "name": "Villasanta",
      "istat": "108049"
    },
    "latitude": 45.6045563,
    "longitude": 9.3119726
  },
  {
    "street": "Via Massimo D'Azeglio",
    "number": "7",
    "city": {
      "name": "Villasanta",
      "istat": "108049"
    },
    "latitude": 45.6045282,
    "longitude": 9.3118197
  },
  {
    "street": "Via Massimo D'Azeglio",
    "number": "5",
    "city": {
      "name": "Villasanta",
      "istat": "108049"
    },
    "latitude": 45.6043931,
    "longitude": 9.311597
  },
  {
    "street": "Via Massimo D'Azeglio",
    "number": "8",
    "city": {
      "name": "Villasanta",
      "istat": "108049"
    },
    "latitude": 45.6042392,
    "longitude": 9.3117553
  },
  {
    "street": "Via Massimo D'Azeglio",
    "number": "6",
    "city": {
      "name": "Villasanta",
      "istat": "108049"
    },
    "latitude": 45.6042673,
    "longitude": 9.3116668
  },
  {
    "street": "Via Massimo D'Azeglio",
    "number": "1",
    "city": {
      "name": "Villasanta",
      "istat": "108049"
    },
    "latitude": 45.6045038,
    "longitude": 9.3112189
  },
  {
    "street": "Via Padre Dino Beretta",
    "number": "2",
    "city": {
      "name": "Villasanta",
      "istat": "108049"
    },
    "latitude": 45.6022275,
    "longitude": 9.3107387
  },
  {
    "street": "Via San Francesco d'Assisi",
    "number": "1",
    "city": {
      "name": "Villasanta",
      "istat": "108049"
    },
    "latitude": 45.6024653,
    "longitude": 9.3118925
  },
  {
    "street": "Via Alfonso La Marmora",
    "number": "7",
    "city": {
      "name": "Villasanta",
      "istat": "108049"
    },
    "latitude": 45.6021131,
    "longitude": 9.3101916
  },
  {
    "street": "Via Alfonso La Marmora",
    "number": "5",
    "city": {
      "name": "Villasanta",
      "istat": "108049"
    },
    "latitude": 45.60219,
    "longitude": 9.3098697
  },
  {
    "street": "Via Alfonso La Marmora",
    "number": "3",
    "city": {
      "name": "Villasanta",
      "istat": "108049"
    },
    "latitude": 45.6021862,
    "longitude": 9.3097705
  },
  {
    "street": "Via Alfonso La Marmora",
    "number": "1a",
    "city": {
      "name": "Villasanta",
      "istat": "108049"
    },
    "latitude": 45.6021938,
    "longitude": 9.3096846
  },
  {
    "street": "Via Francesco Petrarca",
    "number": "7",
    "city": {
      "name": "Villasanta",
      "istat": "108049"
    },
    "latitude": 45.6025222,
    "longitude": 9.3085447
  },
  {
    "street": "Via Francesco Petrarca",
    "number": "7a",
    "city": {
      "name": "Villasanta",
      "istat": "108049"
    },
    "latitude": 45.6025372,
    "longitude": 9.3084776
  },
  {
    "street": "Via Francesco Petrarca",
    "number": "11",
    "city": {
      "name": "Villasanta",
      "istat": "108049"
    },
    "latitude": 45.6023307,
    "longitude": 9.3090919
  },
  {
    "street": "Via dei Mille",
    "number": "2",
    "city": {
      "name": "Villasanta",
      "istat": "108049"
    },
    "latitude": 45.6038564,
    "longitude": 9.3104893
  },
  {
    "street": "Via Dante Alighieri",
    "number": "1",
    "city": {
      "name": "Villasanta",
      "istat": "108049"
    },
    "latitude": 45.6037701,
    "longitude": 9.3102667
  },
  {
    "street": "Via Dante Alighieri",
    "number": "3",
    "city": {
      "name": "Villasanta",
      "istat": "108049"
    },
    "latitude": 45.6037025,
    "longitude": 9.3102157
  },
  {
    "street": "Via Dante Alighieri",
    "number": "5",
    "city": {
      "name": "Villasanta",
      "istat": "108049"
    },
    "latitude": 45.6036293,
    "longitude": 9.3101728
  },
  {
    "street": "Via Dante Alighieri",
    "number": "7",
    "city": {
      "name": "Villasanta",
      "istat": "108049"
    },
    "latitude": 45.6035655,
    "longitude": 9.3101299
  },
  {
    "street": "Via Dante Alighieri",
    "number": "9",
    "city": {
      "name": "Villasanta",
      "istat": "108049"
    },
    "latitude": 45.6034736,
    "longitude": 9.3100896
  },
  {
    "street": "Via Dante Alighieri",
    "number": "11",
    "city": {
      "name": "Villasanta",
      "istat": "108049"
    },
    "latitude": 45.6033666,
    "longitude": 9.310044
  },
  {
    "street": "Via Dante Alighieri",
    "number": "2",
    "city": {
      "name": "Villasanta",
      "istat": "108049"
    },
    "latitude": 45.6035411,
    "longitude": 9.3098992
  },
  {
    "street": "Via Dante Alighieri",
    "number": "4",
    "city": {
      "name": "Villasanta",
      "istat": "108049"
    },
    "latitude": 45.6029913,
    "longitude": 9.3096739
  },
  {
    "street": "Via Dante Alighieri",
    "number": "13",
    "city": {
      "name": "Villasanta",
      "istat": "108049"
    },
    "latitude": 45.6031902,
    "longitude": 9.3099689
  },
  {
    "street": "Via Dante Alighieri",
    "number": "15",
    "city": {
      "name": "Villasanta",
      "istat": "108049"
    },
    "latitude": 45.6029012,
    "longitude": 9.3098295
  },
  {
    "street": "Via Dante Alighieri",
    "number": "17",
    "city": {
      "name": "Villasanta",
      "istat": "108049"
    },
    "latitude": 45.6026723,
    "longitude": 9.3097302
  },
  {
    "street": "Via Dante Alighieri",
    "number": "19",
    "city": {
      "name": "Villasanta",
      "istat": "108049"
    },
    "latitude": 45.6025165,
    "longitude": 9.3096551
  },
  {
    "street": "Via Dante Alighieri",
    "number": "21",
    "city": {
      "name": "Villasanta",
      "istat": "108049"
    },
    "latitude": 45.6023007,
    "longitude": 9.3095586
  },
  {
    "street": "Piazza Padre Domenico Ghezzi",
    "number": "5",
    "city": {
      "name": "Villasanta",
      "istat": "108049"
    },
    "latitude": 45.6035505,
    "longitude": 9.3109345
  },
  {
    "street": "Piazza Padre Domenico Ghezzi",
    "number": "4",
    "city": {
      "name": "Villasanta",
      "istat": "108049"
    },
    "latitude": 45.6035899,
    "longitude": 9.3108031
  },
  {
    "street": "Piazza Padre Domenico Ghezzi",
    "number": "3",
    "city": {
      "name": "Villasanta",
      "istat": "108049"
    },
    "latitude": 45.6035918,
    "longitude": 9.3107575
  },
  {
    "street": "Piazza Padre Domenico Ghezzi",
    "number": "2",
    "city": {
      "name": "Villasanta",
      "istat": "108049"
    },
    "latitude": 45.6036049,
    "longitude": 9.31072
  },
  {
    "street": "Piazza Padre Domenico Ghezzi",
    "number": "1",
    "city": {
      "name": "Villasanta",
      "istat": "108049"
    },
    "latitude": 45.6032953,
    "longitude": 9.3108219
  },
  {
    "street": "Via Padre Dino Beretta",
    "number": "13",
    "city": {
      "name": "Villasanta",
      "istat": "108049"
    },
    "latitude": 45.6027605,
    "longitude": 9.3108058
  },
  {
    "street": "Via Padre Dino Beretta",
    "number": "9",
    "city": {
      "name": "Villasanta",
      "istat": "108049"
    },
    "latitude": 45.6025522,
    "longitude": 9.3107146
  },
  {
    "street": "Via Padre Dino Beretta",
    "number": "7",
    "city": {
      "name": "Villasanta",
      "istat": "108049"
    },
    "latitude": 45.6024565,
    "longitude": 9.3106395
  },
  {
    "street": "Via Padre Dino Beretta",
    "number": "5",
    "city": {
      "name": "Villasanta",
      "istat": "108049"
    },
    "latitude": 45.6024283,
    "longitude": 9.3105403
  },
  {
    "street": "Via Padre Dino Beretta",
    "number": "3",
    "city": {
      "name": "Villasanta",
      "istat": "108049"
    },
    "latitude": 45.6024002,
    "longitude": 9.3104866
  },
  {
    "street": "Via Padre Dino Beretta",
    "number": "10",
    "city": {
      "name": "Villasanta",
      "istat": "108049"
    },
    "latitude": 45.6030044,
    "longitude": 9.311133
  },
  {
    "street": "Via Padre Dino Beretta",
    "number": "8",
    "city": {
      "name": "Villasanta",
      "istat": "108049"
    },
    "latitude": 45.6028656,
    "longitude": 9.3110579
  },
  {
    "street": "Via Padre Dino Beretta",
    "number": "6",
    "city": {
      "name": "Villasanta",
      "istat": "108049"
    },
    "latitude": 45.6025766,
    "longitude": 9.3109131
  },
  {
    "street": "Via Padre Dino Beretta",
    "number": "4",
    "city": {
      "name": "Villasanta",
      "istat": "108049"
    },
    "latitude": 45.6023908,
    "longitude": 9.3108138
  },
  {
    "street": "Via Norma Cossetto",
    "number": "2",
    "city": {
      "name": "Villasanta",
      "istat": "108049"
    },
    "latitude": 45.6089002,
    "longitude": 9.3030589
  },
  {
    "street": "Via Norma Cossetto",
    "number": "4",
    "city": {
      "name": "Villasanta",
      "istat": "108049"
    },
    "latitude": 45.6088419,
    "longitude": 9.302856
  },
  {
    "street": "Via Norma Cossetto",
    "number": "8",
    "city": {
      "name": "Villasanta",
      "istat": "108049"
    },
    "latitude": 45.6088016,
    "longitude": 9.3027034
  },
  {
    "street": "Via Norma Cossetto",
    "number": "6",
    "city": {
      "name": "Villasanta",
      "istat": "108049"
    },
    "latitude": 45.6088236,
    "longitude": 9.3027783
  },
  {
    "street": "Via Tiziano Vecellio",
    "number": "25",
    "city": {
      "name": "Villasanta",
      "istat": "108049"
    },
    "latitude": 45.6173017,
    "longitude": 9.3063824
  },
  {
    "street": "Via Luigi Settembrini",
    "number": "9",
    "city": {
      "name": "Villasanta",
      "istat": "108049"
    },
    "latitude": 45.600032,
    "longitude": 9.3146536
  },
  {
    "street": "Via Leonardo da Vinci",
    "number": "24",
    "city": {
      "name": "Villasanta",
      "istat": "108049"
    },
    "latitude": 45.6093933,
    "longitude": 9.3052542
  },
  {
    "street": "Via Michelangelo Buonarroti",
    "number": "15",
    "city": {
      "name": "Villasanta",
      "istat": "108049"
    },
    "latitude": 45.6145358,
    "longitude": 9.3078655
  },
  {
    "street": "Via Michelangelo Buonarroti",
    "number": "11",
    "city": {
      "name": "Villasanta",
      "istat": "108049"
    },
    "latitude": 45.6144799,
    "longitude": 9.3080942
  },
  {
    "street": "Via Michelangelo Buonarroti",
    "number": "9",
    "city": {
      "name": "Villasanta",
      "istat": "108049"
    },
    "latitude": 45.6144834,
    "longitude": 9.3081704
  },
  {
    "street": "Via Michelangelo Buonarroti",
    "number": "13",
    "city": {
      "name": "Villasanta",
      "istat": "108049"
    },
    "latitude": 45.6145222,
    "longitude": 9.3079442
  },
  {
    "street": "Via Leonardo da Vinci",
    "number": "10",
    "city": {
      "name": "Villasanta",
      "istat": "108049"
    },
    "latitude": 45.6088845,
    "longitude": 9.3045606
  },
  {
    "street": "Via Giovan Battista Tiepolo",
    "number": "1",
    "city": {
      "name": "Villasanta",
      "istat": "108049"
    },
    "latitude": 45.6136673,
    "longitude": 9.3087493
  },
  {
    "street": "Via Leonardo da Vinci",
    "number": "12b",
    "city": {
      "name": "Villasanta",
      "istat": "108049"
    },
    "latitude": 45.6088947,
    "longitude": 9.3045791
  },
  {
    "street": "Via Dante Alighieri",
    "number": "25",
    "city": {
      "name": "Villasanta",
      "istat": "108049"
    },
    "latitude": 45.6008529,
    "longitude": 9.3087488
  },
  {
    "street": "Viale Monza",
    "number": "23",
    "city": {
      "name": "Villasanta",
      "istat": "108049"
    },
    "latitude": 45.5976174,
    "longitude": 9.3119705
  },
  {
    "street": "Viale Monza",
    "number": "1",
    "city": {
      "name": "Villasanta",
      "istat": "108049"
    },
    "latitude": 45.5981069,
    "longitude": 9.3108279
  },
  {
    "street": "Viale Monza",
    "number": "2d",
    "city": {
      "name": "Villasanta",
      "istat": "108049"
    },
    "latitude": 45.5981741,
    "longitude": 9.3108588
  },
  {
    "street": "Viale Monza",
    "number": "1a",
    "city": {
      "name": "Villasanta",
      "istat": "108049"
    },
    "latitude": 45.5979408,
    "longitude": 9.3105892
  },
  {
    "street": "Via Leonardo da Vinci",
    "number": "68a",
    "city": {
      "name": "Villasanta",
      "istat": "108049"
    },
    "latitude": 45.6139095,
    "longitude": 9.3096738
  },
  {
    "street": "Via Federico Confalonieri",
    "number": "135",
    "city": {
      "name": "Villasanta",
      "istat": "108049"
    },
    "latitude": 45.6015534,
    "longitude": 9.2982701
  },
  {
    "street": "Via Tiziano Vecellio",
    "number": "1",
    "city": {
      "name": "Villasanta",
      "istat": "108049"
    },
    "latitude": 45.6190708,
    "longitude": 9.308748
  },
  {
    "street": "Via Benvenuto Cellini",
    "number": "2",
    "city": {
      "name": "Villasanta",
      "istat": "108049"
    },
    "latitude": 45.6033602,
    "longitude": 9.3051218
  },
  {
    "street": "Via Parmenide",
    "number": "18",
    "city": {
      "name": "Villasanta",
      "istat": "108049"
    },
    "latitude": 45.5924009,
    "longitude": 9.3072274
  },
  {
    "street": "Via Raffaello Sanzio",
    "number": "2",
    "city": {
      "name": "Villasanta",
      "istat": "108049"
    },
    "latitude": 45.6015764,
    "longitude": 9.3035314
  },
  {
    "street": "Viale Monza",
    "number": "9",
    "city": {
      "name": "Villasanta",
      "istat": "108049"
    },
    "latitude": 45.5959503,
    "longitude": 9.3108078
  },
  {
    "street": "Via Ada Negri",
    "number": "2",
    "city": {
      "name": "Villasanta",
      "istat": "108049"
    },
    "latitude": 45.6059697,
    "longitude": 9.3004735
  },
  {
    "street": "Via Ambrogio Villa",
    "number": "5",
    "city": {
      "name": "Villasanta",
      "istat": "108049"
    },
    "latitude": 45.6042745,
    "longitude": 9.3030016
  },
  {
    "street": "Piazza Martiri della Libert√†",
    "number": "7",
    "city": {
      "name": "Villasanta",
      "istat": "108049"
    },
    "latitude": 45.6052847,
    "longitude": 9.3032633
  },
  {
    "street": "Via Giuseppe Verdi",
    "number": "7",
    "city": {
      "name": "Villasanta",
      "istat": "108049"
    },
    "latitude": 45.6075617,
    "longitude": 9.301407
  },
  {
    "street": "Via della Resega",
    "number": "3",
    "city": {
      "name": "Villasanta",
      "istat": "108049"
    },
    "latitude": 45.6075024,
    "longitude": 9.3005316
  },
  {
    "street": "Via Thomas Alva Edison",
    "number": "4",
    "city": {
      "name": "Villasanta",
      "istat": "108049"
    },
    "latitude": 45.6048553,
    "longitude": 9.3053145
  },
  {
    "street": "Via Thomas Alva Edison",
    "number": "5",
    "city": {
      "name": "Villasanta",
      "istat": "108049"
    },
    "latitude": 45.604499,
    "longitude": 9.3055195
  },
  {
    "street": "Via Tiziano Vecellio",
    "number": "4,6",
    "city": {
      "name": "Villasanta",
      "istat": "108049"
    },
    "latitude": 45.6173405,
    "longitude": 9.3110806
  },
  {
    "street": "Piazza Lorenzo Daelli",
    "number": "8",
    "city": {
      "name": "Villasanta",
      "istat": "108049"
    },
    "latitude": 45.6078469,
    "longitude": 9.3037199
  },
  {
    "street": "Viale della Vittoria",
    "number": "38",
    "city": {
      "name": "Villasanta",
      "istat": "108049"
    },
    "latitude": 45.6116681,
    "longitude": 9.3033138
  },
  {
    "street": "Via Ambrogio Villa",
    "number": "6",
    "city": {
      "name": "Villasanta",
      "istat": "108049"
    },
    "latitude": 45.6035633,
    "longitude": 9.302894
  }
]